[{"id":"ChIJxayQplJn14ARjTgMX5KCpWo","name":"Lowe's","address":"2053 N Imperial Ave, El Centro, CA 92243","materials":["cellphones","highenergybattery","rechargeable"],"lat":32.81243,"lng":-115.56718,"county":"Imperial","phone":"760-337-6700"},{"id":"ChIJVwl0asNm14ARiCDPoQZ2cPw","name":"The Home Depot","address":"320 Wake Ave, El Centro, CA 92243","materials":["rechargeable"],"lat":32.77204,"lng":-115.54923,"county":"Imperial","phone":"760-353-0362"},{"id":"ChIJzU4gBcZD6oAR8BBm3HmGAKA","name":"Action Sports - Bakersfield","address":"9500 Brimhall Rd, Suite 400, Bakersfield, CA 93312","materials":["ebike"],"lat":35.37016,"lng":-119.10831,"county":"Kern"},{"id":"ChIJ4ZWsz5Fp6oARUFquOB0hKsk","name":"Kern County Public Works","address":"2700 M Street, Bakersfield, CA 93301","materials":["cellphones","rechargeable"],"lat":35.38358,"lng":-119.01448,"county":"Kern"},{"id":"ChIJ-0f6aLZp6oARhitiog1B2hs","name":"Kern River POWER EQ","address":"108 N Chester Ave, Bakersfield, CA 93308","materials":["highenergybattery"],"lat":35.40539,"lng":-119.02068,"county":"Kern"},{"id":"ChIJ4119AU1C6oARLX8upTHpcFU","name":"Lowe's","address":"7825 Rosedale Hwy, Bakersfield, CA 93308","materials":["cellphones","highenergybattery","rechargeable"],"lat":35.38146,"lng":-119.08908,"county":"Kern","phone":"661-588-6420"},{"id":"ChIJTTQIW0Jp6oARsc87p7zPjCs","name":"Lowe's","address":"1601 Columbus St, Bakersfield, CA 93305","materials":["cellphones","highenergybattery","rechargeable"],"lat":35.39567,"lng":-118.97433,"county":"Kern"},{"id":"ChIJw3cxardq6oARMjK_gIxXn14","name":"Lowe's","address":"6200 Colony St, Bakersfield, CA 93307","materials":["cellphones","highenergybattery","rechargeable"],"lat":35.29826,"lng":-119.0268,"county":"Kern","phone":"661-699-1000"},{"id":"ChIJCdFvsa5D6oARdxqqfo5C4EQ","name":"The Home Depot","address":"8700 Rosedale Hwy, Bakersfield, CA 93312","materials":["rechargeable"],"lat":35.3855,"lng":-119.09938,"county":"Kern","phone":"661-587-1545"},{"id":"ChIJDUoaJFVA6oAR0TZ63w9qng8","name":"The Home Depot","address":"4700 Gosford Rd, Bakersfield, CA 93313","materials":["rechargeable"],"lat":35.31198,"lng":-119.08998,"county":"Kern"},{"id":"ChIJI0ORo7n3wYARdBUnY-DiUE0","name":"The Home Depot","address":"507 N Mill St, Tehachapi, CA 93561","materials":["rechargeable"],"lat":35.13837,"lng":-118.45373,"county":"Kern"},{"id":"ChIJf6Xg19hB6oARwdJA05VhdBA","name":"The Home Depot","address":"4001 Ming Ave, Bakersfield, CA 93309","materials":["rechargeable"],"lat":35.33821,"lng":-119.04884,"county":"Kern"},{"id":"ChIJscD6mFBp6oARKiwzkR70OnU","name":"The Home Depot","address":"2655 Mount Vernon Ave, Bakersfield, CA 93306","materials":["rechargeable"],"lat":35.39268,"lng":-118.96414,"county":"Kern"},{"id":"ChIJ-Yo1k8rHwoARGqlK8bNVEv8","name":"Apple Tower Theater","address":"802 S Broadway, Los Angeles, CA 90014","materials":["cellphones","rechargeable"],"lat":34.04361,"lng":-118.25468,"county":"Los Angeles","phone":"213-655-1200"},{"id":"ChIJsbW1fgDDwoAR06rOA18401k","name":"Around the Cycle","address":"1270 Lincoln Ave, Pasadena, CA 91103","materials":["ebike"],"lat":34.1688,"lng":-118.15871,"county":"Los Angeles","phone":"626-765-6601"},{"id":"ChIJNUsqUp27woARFpaSLNc8tfs","name":"BIKE IMPROVE","address":"10927 Santa Monica Blvd, Los Angeles, CA 90025","materials":["ebike"],"lat":34.04945,"lng":-118.43911,"county":"Los Angeles","phone":"310-400-0363"},{"id":"ChIJfxveaI6awoARy1roSIozICA","name":"Balboa S.A.F.E. Center","address":"10241 Balboa Ave, Northridge, CA 91325","materials":["cellphones","rechargeable"],"lat":34.25684,"lng":-118.50275,"county":"Los Angeles","phone":"310-936-3675"},{"id":"ChIJD_pF2vy9woAREsQ94hLWGpk","name":"Barnes & Noble","address":"12136 Ventura Blvd, Studio City, CA 91604","materials":["cellphones","rechargeable"],"lat":34.14311,"lng":-118.39636,"county":"Los Angeles","phone":"818-505-9528"},{"id":"ChIJ37kkPSUmw4ARMZF1WjKTAdo","name":"Bicycle Central - Glendora","address":"121 W. Route 66, Glendora, CA 91740","materials":["ebike"],"lat":34.12992,"lng":-117.86416,"county":"Los Angeles","phone":"626-963-2312"},{"id":"ChIJ90LqzFeVwoARJD6mGk9w2BQ","name":"City of Burbank","address":"500 S Flower St, Burbank, CA 91502","materials":["cellphones","rechargeable"],"lat":34.17564,"lng":-118.30847,"county":"Los Angeles","phone":"818-238-3900"},{"id":"ChIJw5m7MZ-5woARRF-o5igrl38","name":"EVELO Electric Bicycles","address":"2643 Fairfax Ave, Culver City, CA 90232","materials":["ebike"],"lat":34.03129,"lng":-118.37167,"county":"Los Angeles","phone":"310-621-3100"},{"id":"ChIJm85u0AQ23YARBu5DkONIjQA","name":"Gaffey S.A.F.E. Center","address":"1400 N Gaffey St, San Pedro, CA 90731","materials":["cellphones","rechargeable"],"lat":33.75914,"lng":-118.29127,"county":"Los Angeles","phone":"310-427-1521"},{"id":"ChIJOwyvWJq4woARyEq2bn4_mH4","name":"Godspeed Cyclery","address":"533 S. Western Ave, Los Angeles, CA 90020","materials":["ebike"],"lat":34.06441,"lng":-118.30926,"county":"Los Angeles","phone":"213-908-5005"},{"id":"EjM3NjYwIFcgSW1wZXJpYWwgSHd5IGIsIFBsYXlhIERlbCBSZXksIENBIDkwMjkzLCBVU0EiHRobChYKFAoSCX-h_dMFscKAEcC_xqJUHt65EgFi","name":"Hyperion S.A.F.E. Center","address":"7660 W Imperial Hwy, Gate B, Playa Del Rey, CA 90293","materials":["cellphones","rechargeable"],"lat":33.93054,"lng":-118.43345,"county":"Los Angeles"},{"id":"ChIJa7w-hHDDwoARGOdEo07xeMQ","name":"Incycle Pasadena","address":"175 outh Fair Oaks, Pasadena, CA 91105","materials":["ebike"],"lat":34.14265,"lng":-118.15068,"county":"Los Angeles","phone":"626-577-0440"},{"id":"ChIJ-8hagRKHwoAR7y4veD8banE","name":"Incycle Santa Clarita","address":"23360 Cinema Dr, Valencia, CA 91355","materials":["ebike"],"lat":34.41898,"lng":-118.54509,"county":"Los Angeles","phone":"661-254-4008"},{"id":"ChIJx-FMG9Utw4ARX_sWNv-4S5U","name":"Incycle, Inc.","address":"1733 W. 2nd St, Pomona, CA 91766","materials":["ebike"],"lat":34.05666,"lng":-117.78196,"county":"Los Angeles"},{"id":"ChIJHfjf9BScwoARdgCJr178F6o","name":"JB BIKE SHOP","address":"21435 Sherman Way, Canoga Park, CA 91303","materials":["ebike"],"lat":34.20126,"lng":-118.59882,"county":"Los Angeles","phone":"818-615-0708"},{"id":"ChIJg3PjRR0y3YARXBQQ817geQU","name":"Jax Bicycles - Long Beach","address":"3000 N Bellflower Blvd, Long Beach, CA 90808","materials":["ebike"],"lat":33.81104,"lng":-118.12475,"county":"Los Angeles"},{"id":"ChIJCyH2EHujwoAR8OgePbCvXh8","name":"Kruse and Company Bicycles","address":"15121 W Sunset Blvd, Pacific Palisades, CA 90272","materials":["ebike"],"lat":34.04571,"lng":-118.52341,"county":"Los Angeles","phone":"310-526-7668"},{"id":"ChIJE9KPdwMvw4ARSGX0XIYamDo","name":"La Verne Power Equipment, Inc.","address":"720 Arrow Hwy, La Verne, CA 91750","materials":["highenergybattery"],"lat":34.1016,"lng":-117.79318,"county":"Los Angeles","phone":"909-596-2363"},{"id":"ChIJb0rr7YGVwoARCHLlB92Y0s0","name":"Let's Ride Cyclery","address":"1038 N Hollywood way, Burbank, CA 91505","materials":["ebike"],"lat":34.16929,"lng":-118.34738,"county":"Los Angeles","phone":"818-848-8330"},{"id":"ChIJ0SSbS_gx3YAR88pCQG3oYCk","name":"Lowe's","address":"2840 N Bellflower Blvd, Long Beach, CA 90815","materials":["cellphones","highenergybattery","rechargeable"],"lat":33.80731,"lng":-118.12244,"county":"Los Angeles","phone":"562-496-8120"},{"id":"ChIJ5_HUerxZwoAR4fxDEpX8Yr4","name":"Lowe's","address":"39500 Lowes Dr, Palmdale, CA 93551","materials":["cellphones","highenergybattery","rechargeable"],"lat":34.59923,"lng":-118.14389,"county":"Los Angeles","phone":"661-267-9888"},{"id":"ChIJ5cYcwnOHwoARCItCRnX5b3A","name":"Lowe's","address":"26415 Bouquet Canyon Rd, Santa Clarita, CA 91350","materials":["cellphones","highenergybattery","rechargeable"],"lat":34.42656,"lng":-118.53993,"county":"Los Angeles"},{"id":"ChIJDS3HkPnRwoARoWcby7Vty68","name":"Lowe's","address":"8600 Washington Blvd, Pico Rivera, CA 90660","materials":["cellphones","highenergybattery","rechargeable"],"lat":33.98416,"lng":-118.10239,"county":"Los Angeles"},{"id":"ChIJDxcSmaaRwoARregb8_PTQgU","name":"Lowe's","address":"13500 Paxton St, Pacoima, CA 91331","materials":["cellphones","highenergybattery","rechargeable"],"lat":34.27348,"lng":-118.42416,"county":"Los Angeles"},{"id":"ChIJF68jcFa5woARaEI4onsil8k","name":"Lowe's","address":"4550 W Pico Blvd, Los Angeles, CA 90019","materials":["cellphones","highenergybattery","rechargeable"],"lat":34.04788,"lng":-118.3356,"county":"Los Angeles","phone":"323-617-9570"},{"id":"ChIJO7lCMseIwoARFEBgXCh4Fvg","name":"Lowe's","address":"19001 Golden Valley Rd, Canyon Country, CA 91387","materials":["cellphones","highenergybattery","rechargeable"],"lat":34.39648,"lng":-118.46094,"county":"Los Angeles"},{"id":"ChIJQ7joNd61woAR-6CetsO06nY","name":"Lowe's","address":"2800 W 120th St, Hawthorne, CA 90250","materials":["cellphones","highenergybattery","rechargeable"],"lat":33.92207,"lng":-118.32446,"county":"Los Angeles","phone":"323-327-4000"},{"id":"ChIJR7OszxKVwoARZOALt_g7ANM","name":"Lowe's","address":"2000 W Empire Ave, Burbank, CA 91504","materials":["cellphones","highenergybattery","rechargeable"],"lat":34.18953,"lng":-118.33245,"county":"Los Angeles","phone":"818-557-2300"},{"id":"ChIJWbm-4wwow4AREGYHXSpV8a8","name":"Lowe's","address":"1348 N Azusa Ave, Covina, CA 91722","materials":["cellphones","highenergybattery","rechargeable"],"lat":34.1037,"lng":-117.90341,"county":"Los Angeles"},{"id":"ChIJXZkLTLst3YARtXog02F2QQs","name":"Lowe's","address":"7300 Carson Blvd, Long Beach, CA 90808","materials":["cellphones","highenergybattery","rechargeable"],"lat":33.82824,"lng":-118.08911,"county":"Los Angeles","phone":"562-421-9996"},{"id":"ChIJ_f5kBMQs3YARYLeKPDo4xrI","name":"Lowe's","address":"14873 Carmenita Rd, Norwalk, CA 90650","materials":["cellphones","highenergybattery","rechargeable"],"lat":33.8964,"lng":-118.04808,"county":"Los Angeles"},{"id":"ChIJj9scNHSbwoARJWDhyB0Xvu0","name":"Lowe's","address":"19601 Nordhoff St, Northridge, CA 91324","materials":["cellphones","highenergybattery","rechargeable"],"lat":34.23648,"lng":-118.56119,"county":"Los Angeles","phone":"818-477-9022"},{"id":"ChIJnfGkSfBawoAR53TUh573KXk","name":"Lowe's","address":"730 W Avenue K, Lancaster, CA 93534","materials":["cellphones","rechargeable"],"lat":34.67348,"lng":-118.1449,"county":"Los Angeles"},{"id":"ChIJnzAlbvdK3YARg_VhPTqcYJ0","name":"Lowe's","address":"2700 Skypark Dr, Torrance, CA 90505","materials":["cellphones","highenergybattery","rechargeable"],"lat":33.80262,"lng":-118.33355,"county":"Los Angeles"},{"id":"ChIJpYcwMZb4woARtAFyuyI14V4","name":"Lowe's","address":"37080 47th St E, Palmdale, CA 93552","materials":["cellphones","highenergybattery","rechargeable"],"lat":34.55446,"lng":-118.04276,"county":"Los Angeles"},{"id":"ChIJt5qdinoqw4ARrIzjEbAbCLg","name":"Lowe's","address":"17789 Castleton St, City Of Industry, CA 91748","materials":["cellphones","highenergybattery","rechargeable"],"lat":33.99406,"lng":-117.91648,"county":"Los Angeles","phone":"626-217-1133"},{"id":"ChIJy8PVAJhK3YARcOkHfAU_uto","name":"Lowe's","address":"22255 S Western Ave, Torrance, CA 90501","materials":["cellphones","highenergybattery","rechargeable"],"lat":33.82544,"lng":-118.31078,"county":"Los Angeles"},{"id":"ChIJybZ_bF-cwoARdMB_gsIbIoQ","name":"Lowe's","address":"8383 Topanga Canyon Blvd, West Hills, CA 91304","materials":["cellphones","highenergybattery","rechargeable"],"lat":34.22101,"lng":-118.60715,"county":"Los Angeles","phone":"818-610-1960"},{"id":"Eio2MzMgRSBCb25pdGEgQXZlLCBTYW4gRGltYXMsIENBIDkxNzczLCBVU0EiMRIvChQKEgn3-GJZBS_DgBG5jQxLpECZWRD5BCoUChIJG2FIsxovw4ARh01X522td-U","name":"Lowe's","address":"633 E Bonita Ave, San Dimas, CA 91773","materials":["cellphones","rechargeable"],"lat":34.10716,"lng":-117.79524,"county":"Los Angeles","phone":"909-305-2960"},{"id":"ChIJYzII93sr3YAR4XjjD-HQJPI","name":"Makita Factory Service Center","address":"14930 Northam St, La Mirada, CA 90638","materials":["cellphones","rechargeable"],"lat":33.88477,"lng":-118.01256,"county":"Los Angeles"},{"id":"ChIJe9knCyaawoARIUQ7uhqghIs","name":"Marcos Hardware and Garden Supply","address":"17734 Saticoy ST, Reseda, CA 91335","materials":["highenergybattery"],"lat":34.20809,"lng":-118.52013,"county":"Los Angeles"},{"id":"EiwyOTE4IFcgTWFnbm9saWEgQmx2ZCwgQnVyYmFuaywgQ0EgOTE1MDUsIFVTQSIxEi8KFAoSCRm9VTt8lcKAETOoc8py7y4qEOYWKhQKEgk_839ce5XCgBFsPBk0TR3MPw","name":"Mybike","address":"2918 w Magnolia Blvd, Burbank, CA 91505","materials":["ebike"],"lat":34.17016,"lng":-118.33943,"county":"Los Angeles","phone":"747-308-1552"},{"id":"ChIJDRCkQ1LDwoARSmWaSdqrYeQ","name":"Pasadena Cyclery","address":"1670 E Walnut St, Pasadena, CA 91106","materials":["ebike"],"lat":34.1494,"lng":-118.11618,"county":"Los Angeles"},{"id":"ChIJSSaTI6y0woARB7A_0RMIlU0","name":"Pedego South Bay - Redondo Beach, California","address":"607 S. Pacific Coast Highway, Redondo Beach, CA 90277","materials":["ebike"],"lat":33.83224,"lng":-118.3853,"county":"Los Angeles","phone":"310-921-8171"},{"id":"ChIJR2kt9YC6woARAvbJr1s3kHI","name":"REI - Marina Del Rey","address":"4655 Admiralty Way, Marina Del Rey, CA 90292","materials":["ebike"],"lat":33.98038,"lng":-118.4412,"county":"Los Angeles"},{"id":"ChIJl5qhSR-bwoAROp8rP8HZSSs","name":"REI - Northridge","address":"18605 Devonshire St., Northridge, CA 91324","materials":["ebike"],"lat":34.25858,"lng":-118.53849,"county":"Los Angeles","phone":"818-831-5555"},{"id":"ChIJO6diSSCcwoARXd7YdaV5clA","name":"REI - Woodland Hills","address":"6220 Topanga Blvd, Woodland Hills, CA 91367","materials":["ebike"],"lat":34.18396,"lng":-118.60484,"county":"Los Angeles","phone":"818-703-5300"},{"id":"ChIJ29MsGguUwoARHzmGEQ9XiTg","name":"Randall S.A.F.E. Center","address":"11025 Randall St, Sun Valley, CA 91352","materials":["cellphones","rechargeable"],"lat":34.2376,"lng":-118.37146,"county":"Los Angeles"},{"id":"ChIJoSvm6Ky0woARDx_vOUrwSGY","name":"Redondo eBikes","address":"730 S Pacific Coast Highway, Redondo Beach, CA 90277","materials":["ebike"],"lat":33.82908,"lng":-118.38505,"county":"Los Angeles","phone":"310-303-3189"},{"id":"ChIJlS_ntq24woARlg3cikg8E-0","name":"Safety Cycle","address":"1018 N Western ave, Los Angeles, CA 90029","materials":["ebike"],"lat":34.08907,"lng":-118.30885,"county":"Los Angeles","phone":"323-464-5765"},{"id":"ChIJW99aLnKbwoARLCqto76EuI4","name":"Serious Cycling Northridge","address":"19600 Plummer St, Northridge, CA 91324","materials":["ebike"],"lat":34.24155,"lng":-118.56108,"county":"Los Angeles","phone":"818-597-8330"},{"id":"ChIJJ148M2lK3YARF3OPw8ro2yg","name":"Smith's Cycle","address":"2073 Pacific Coast Hwy, Lomita, CA 90717","materials":["ebike"],"lat":33.78982,"lng":-118.31702,"county":"Los Angeles","phone":"310-326-0617"},{"id":"ChIJd-P3ZPazwoARzU0xR0RX9Ns","name":"South Bay Cycle","address":"1908 N Sepulveda Blvd, Manhattan Beach, CA 90266","materials":["ebike"],"lat":33.89198,"lng":-118.3955,"county":"Los Angeles","phone":"310-881-8081"},{"id":"ChIJeb3JDdGkwoARAAm9kc07AcE","name":"The Bike Center","address":"1555 2nd street, Santa Monica, CA 90401","materials":["ebike"],"lat":34.01243,"lng":-118.49398,"county":"Los Angeles","phone":"310-576-0904"},{"id":"ChIJOxomT-ZJ3YAR16iNzMfL7E0","name":"The Bike Palace","address":"1485 W Summerland Ave, San Pedro, CA 90732","materials":["ebike"],"lat":33.74688,"lng":-118.30927,"county":"Los Angeles"},{"id":"ChIJ2RrPu7BK3YARLSTKnpIujKk","name":"The DropOut Cyclery","address":"1272 SARTORI AVE, Torrance, CA 90501","materials":["ebike"],"lat":33.83558,"lng":-118.31592,"county":"Los Angeles","phone":"424-488-2099"},{"id":"ChIJ-3zwIHwtw4ARqhSFlH_Q0-Q","name":"The Home Depot","address":"2707 S Towne Ave, Pomona, CA 91766","materials":["rechargeable"],"lat":34.02208,"lng":-117.74229,"county":"Los Angeles"},{"id":"ChIJ0bhDWiPQwoARnsPtaBBNABw","name":"The Home Depot","address":"3500 Market Pl, Monterey Park, CA 91775","materials":["rechargeable"],"lat":34.03721,"lng":-118.10151,"county":"Los Angeles","phone":"323-914-6400"},{"id":"ChIJ3QtpZcdZwoARsqkBEFx8wAo","name":"The Home Depot","address":"340 W Avenue P, Palmdale, CA 93551","materials":["rechargeable"],"lat":34.59909,"lng":-118.13502,"county":"Los Angeles","phone":"661-266-9600"},{"id":"ChIJ3SXNJgE23YARSdVACCZpDCA","name":"The Home Depot","address":"2115 N Gaffey St, San Pedro, CA 90731","materials":["rechargeable"],"lat":33.76521,"lng":-118.29487,"county":"Los Angeles","phone":"310-221-0257"},{"id":"ChIJ5Y8N5mUqw4ARR9YfxGMWxgM","name":"The Home Depot","address":"18131 Gale Ave, City Of Industry, CA 91748","materials":["rechargeable"],"lat":33.99614,"lng":-117.90793,"county":"Los Angeles"},{"id":"ChIJ92lXpooy3YAR9WDjww0PWBI","name":"The Home Depot","address":"5000 Hardwick St, Lakewood, CA 90712","materials":["rechargeable"],"lat":33.84891,"lng":-118.13476,"county":"Los Angeles","phone":"562-529-3500"},{"id":"ChIJ95e_oiRWwoARy3acliTIHrw","name":"The Home Depot","address":"38215 47th St E, Palmdale, CA 93552","materials":["rechargeable"],"lat":34.57681,"lng":-118.04843,"county":"Los Angeles","phone":"661-285-3252"},{"id":"ChIJ9980m7zXwoARatHMxxCOBZA","name":"The Home Depot","address":"3200 Puente Ave, Baldwin Park, CA 91706","materials":["rechargeable"],"lat":34.07256,"lng":-117.95783,"county":"Los Angeles"},{"id":"ChIJDZXd9aI13YARjwpdpdAaNYI","name":"The Home Depot","address":"110 E Sepulveda Blvd, Carson, CA 90745","materials":["rechargeable"],"lat":33.8063,"lng":-118.27424,"county":"Los Angeles","phone":"310-834-7547"},{"id":"ChIJGcnpOinJwoARMR7WbDw8fGg","name":"The Home Depot","address":"3040 E Slauson Ave, Huntington Park, CA 90255","materials":["rechargeable"],"lat":33.989,"lng":-118.21382,"county":"Los Angeles","phone":"323-587-5520"},{"id":"ChIJIZeimhnFwoARn2zUFRhQodY","name":"The Home Depot","address":"500 S Marengo Ave, Alhambra, CA 91803","materials":["rechargeable"],"lat":34.0851,"lng":-118.14061,"county":"Los Angeles"},{"id":"ChIJKRHF_T20woARnbMhzqrBe4k","name":"The Home Depot","address":"14603 Ocean Gate Ave, Hawthorne, CA 90250","materials":["rechargeable"],"lat":33.89812,"lng":-118.36902,"county":"Los Angeles"},{"id":"ChIJM6DaurzKwoARPNWKudElW-I","name":"The Home Depot","address":"740 W 182nd St, Gardena, CA 90248","materials":["rechargeable"],"lat":33.8685,"lng":-118.28665,"county":"Los Angeles","phone":"310-324-7100"},{"id":"ChIJMc1bdbvTwoARXPZQ9J98c3k","name":"The Home Depot","address":"12322 Washington Blvd, Whittier, CA 90606","materials":["rechargeable"],"lat":33.9649,"lng":-118.04937,"county":"Los Angeles"},{"id":"ChIJOZAUnD0ow4ARmUo1nrUnUjc","name":"The Home Depot","address":"963 W Badillo St, Covina, CA 91722","materials":["rechargeable"],"lat":34.08819,"lng":-117.91001,"county":"Los Angeles"},{"id":"ChIJP-V8bU6_woAROSpjum2C1wI","name":"The Home Depot","address":"5600 W Sunset Blvd, Los Angeles, CA 90028","materials":["rechargeable"],"lat":34.09758,"lng":-118.31277,"county":"Los Angeles","phone":"323-461-3303"},{"id":"ChIJQRW3pMvNwoARrqDYGbTiNXc","name":"The Home Depot","address":"7121 Firestone Blvd, Downey, CA 90241","materials":["rechargeable"],"lat":33.94978,"lng":-118.15547,"county":"Los Angeles"},{"id":"ChIJQSpr0Vot3YARS3py2rvnj3g","name":"The Home Depot","address":"10930 Alondra Blvd, Cerritos, CA 90703","materials":["rechargeable"],"lat":33.88578,"lng":-118.10102,"county":"Los Angeles"},{"id":"ChIJQzSsDB2cwoARfg1ey4bjAcU","name":"The Home Depot","address":"6345 Variel Ave, Woodland Hills, CA 91367","materials":["rechargeable"],"lat":34.18606,"lng":-118.59402,"county":"Los Angeles","phone":"818-716-9141"},{"id":"ChIJR5UczR_HwoARqnqeTkynXDs","name":"The Home Depot","address":"2055 N Figueroa St, Los Angeles, CA 90065","materials":["rechargeable"],"lat":34.08311,"lng":-118.22525,"county":"Los Angeles"},{"id":"ChIJS3J792ScwoARBJUH0aRQl9c","name":"The Home Depot","address":"21218 Roscoe Blvd, Canoga Park, CA 91304","materials":["rechargeable"],"lat":34.21839,"lng":-118.59421,"county":"Los Angeles","phone":"818-348-9400"},{"id":"ChIJSRGovCZbwoAR94Bl0KkJfWQ","name":"The Home Depot","address":"44226 20th St W, Lancaster, CA 93534","materials":["rechargeable"],"lat":34.68634,"lng":-118.16412,"county":"Los Angeles"},{"id":"ChIJVyRGipuwwoARWKOnWszB4Cw","name":"The Home Depot","address":"12975 W Jefferson Blvd, Los Angeles, CA 90066","materials":["rechargeable"],"lat":33.97665,"lng":-118.42379,"county":"Los Angeles","phone":"310-822-3330"},{"id":"ChIJWW6p1MydwoARrOXdVNYWPSY","name":"The Home Depot","address":"22855 Victory Blvd, West Hills, CA 91307","materials":["rechargeable"],"lat":34.18928,"lng":-118.62645,"county":"Los Angeles","phone":"818-887-7083"},{"id":"ChIJXVht79GHwoAR0SaLfbnNBsI","name":"The Home Depot","address":"20642 Golden Triangle Rd, Canyon Country, CA 91351","materials":["rechargeable"],"lat":34.41888,"lng":-118.49718,"county":"Los Angeles"},{"id":"ChIJbREpzgvZwoAReSjZOESPtiY","name":"The Home Depot","address":"1625 S Mountain Ave, Monrovia, CA 91016","materials":["rechargeable"],"lat":34.13376,"lng":-117.99012,"county":"Los Angeles"},{"id":"ChIJbc5_v0XLwoARw-7iVwf381E","name":"The Home Depot","address":"101 Towne Center Dr, Compton, CA 90220","materials":["rechargeable"],"lat":33.88,"lng":-118.22197,"county":"Los Angeles"},{"id":"ChIJc8DXSrMow4ARX86KeJHwF4s","name":"The Home Depot","address":"1305 S Lone Hill Ave, Glendora, CA 91740","materials":["rechargeable"],"lat":34.1146,"lng":-117.83122,"county":"Los Angeles"},{"id":"ChIJdRUIAVMr3YARKrbgz3up9iU","name":"The Home Depot","address":"12300 La Mirada Blvd, La Mirada, CA 90638","materials":["rechargeable"],"lat":33.91835,"lng":-118.01019,"county":"Los Angeles","phone":"562-947-3742"},{"id":"ChIJfTijui2UwoARLLWwK0Hspc0","name":"The Home Depot","address":"11600 Sherman Way, North Hollywood, CA 91605","materials":["rechargeable"],"lat":34.20032,"lng":-118.38308,"county":"Los Angeles"},{"id":"ChIJfWIKH_bAwoARulCeRbvUl4Q","name":"The Home Depot","address":"5040 San Fernando Rd, Glendale, CA 91204","materials":["rechargeable"],"lat":34.14385,"lng":-118.26911,"county":"Los Angeles","phone":"818-246-9600"},{"id":"ChIJiWAzRqHHwoARN_W9G2frlBA","name":"The Home Depot","address":"1675 Wilshire Blvd, Los Angeles, CA 90017","materials":["rechargeable"],"lat":34.0572,"lng":-118.27075,"county":"Los Angeles","phone":"213-273-8464"},{"id":"ChIJk2098mXawoAR7dQ0Jg2n8B8","name":"The Home Depot","address":"9700 Lower Azusa Rd, El Monte, CA 91731","materials":["rechargeable"],"lat":34.08829,"lng":-118.05446,"county":"Los Angeles","phone":"626-443-2100"},{"id":"ChIJkY2-1LnMwoAR2ch3O41l6BQ","name":"The Home Depot","address":"6400 Alondra Blvd, Paramount, CA 90723","materials":["rechargeable"],"lat":33.88776,"lng":-118.18543,"county":"Los Angeles","phone":"562-272-8055"},{"id":"ChIJm4R0LS-XwoARLGJ8ZFKPNZM","name":"The Home Depot","address":"7870 Van Nuys Blvd, Panorama City, CA 91402","materials":["rechargeable"],"lat":34.21409,"lng":-118.44621,"county":"Los Angeles","phone":"818-373-0046"},{"id":"ChIJmZhCFRCawoARNkdvPz0jqI4","name":"The Home Depot","address":"16800 Roscoe Blvd, Van Nuys, CA 91406","materials":["rechargeable"],"lat":34.21982,"lng":-118.49945,"county":"Los Angeles","phone":"818-780-5448"},{"id":"ChIJm_NGb9Yz3YARhtMsxvS3l3Y","name":"The Home Depot","address":"2450 Cherry Ave, Signal Hill, CA 90755","materials":["rechargeable"],"lat":33.80181,"lng":-118.16593,"county":"Los Angeles"},{"id":"ChIJmcJI-_ZK3YARV0FJmnoBwKA","name":"The Home Depot","address":"24451 Crenshaw Blvd, Torrance, CA 90505","materials":["rechargeable"],"lat":33.80331,"lng":-118.33061,"county":"Los Angeles"},{"id":"ChIJtbsvi-oz3YARJy_3k2-DFdQ","name":"The Home Depot","address":"751 E Spring St, Long Beach, CA 90755","materials":["rechargeable"],"lat":33.81322,"lng":-118.18358,"county":"Los Angeles","phone":"562-426-4667"},{"id":"ChIJwS4MyCG3woARRRcash9NPNk","name":"The Home Depot","address":"8801 S la Cienega Blvd, Inglewood, CA 90301","materials":["rechargeable"],"lat":33.95714,"lng":-118.37067,"county":"Los Angeles","phone":"310-417-9051"},{"id":"ChIJx45o9ft9woARZaQTD6OjH9U","name":"The Home Depot","address":"28033 Newhall Ranch Rd, Valencia, CA 91355","materials":["rechargeable"],"lat":34.44055,"lng":-118.57378,"county":"Los Angeles"},{"id":"ChIJyyy8QhPOwoARP_eAoxM9k-M","name":"The Home Depot","address":"7015 Telegraph Rd, Commerce, CA 90040","materials":["rechargeable"],"lat":33.98697,"lng":-118.13429,"county":"Los Angeles","phone":"323-727-9600"},{"id":"ChIJzWOqMfApw4ARtg99un0zwSk","name":"The Home Depot","address":"2220 S Azusa Ave, West Covina, CA 91792","materials":["rechargeable"],"lat":34.03681,"lng":-117.91083,"county":"Los Angeles"},{"id":"ChIJzXiGO923woARpe5ghlDkges","name":"The Home Depot","address":"1830 W Slauson Ave, Los Angeles, CA 90047","materials":["rechargeable"],"lat":33.9881,"lng":-118.31021,"county":"Los Angeles","phone":"323-292-1397"},{"id":"EigxMjAwIFMgRmxvd2VyIFN0LCBCdXJiYW5rLCBDQSA5MTUwMiwgVVNBIjESLwoUChIJS34-hvi_woARHJtc02qxnFYQsAkqFAoSCcdQW9D9v8KAEXvZOE2J5uMK","name":"The Home Depot","address":"1200 S Flower St, Burbank, CA 91502","materials":["rechargeable"],"lat":34.16926,"lng":-118.30008,"county":"Los Angeles","phone":"818-556-1563"},{"id":"ChIJOdgn8_Ek6IARrE2gg9D1fJ0","name":"The Hub Bike Shop Westlake","address":"2900 Townsgate Rd. #109, Westlake Village, CA 91361","materials":["ebike"],"lat":34.15209,"lng":-118.82331,"county":"Los Angeles","phone":"805-371-6482"},{"id":"ChIJLYyII-8k6IARAEhj0vPEXaU","name":"The Hub Bike Shop Westlake Village","address":"973 S. Westlake Blvd. #100, Westlake Village, CA 91361","materials":["ebike"],"lat":34.15304,"lng":-118.82947,"county":"Los Angeles"},{"id":"ChIJpaYuXs2wwoAR_cdEqliJpYY","name":"Trans Port Station LLC","address":"6239 W87th st, Los Angeles, CA 90045","materials":["ebike"],"lat":33.95875,"lng":-118.39438,"county":"Los Angeles","phone":"310-429-2791"},{"id":"ChIJp9ZBXHaHwoARljZGzIhuwdQ","name":"Trek Bicycle Santa Clarita","address":"26625 Bouquet Canyon Rd, Santa Clarita, CA 91350","materials":["ebike"],"lat":34.43028,"lng":-118.53556,"county":"Los Angeles","phone":"661-414-0088"},{"id":"ChIJu23Wz_wk6IARBwXhXziExsA","name":"Trek Bicycle Westlake Village","address":"3835 E Thousand Oaks Blvd Unit K, Westlake Village, CA 91362","materials":["ebike"],"lat":34.16351,"lng":-118.82415,"county":"Los Angeles","phone":"805-251-0946"},{"id":"ChIJvQbkM3vDwoAR6kQbQpD6dbs","name":"Trek Bikes Pasadena","address":"323 S Arroyo Pkwy, Pasadena, CA 91105","materials":["ebike"],"lat":34.13959,"lng":-118.14775,"county":"Los Angeles","phone":"626-377-4114"},{"id":"ChIJY3nKusQ03YARtb5QoINwRWY","name":"Ubreakifix","address":"1729 E Dimondale Dr, Carson, CA 90746","materials":["cellphones","rechargeable"],"lat":33.84896,"lng":-118.24017,"county":"Los Angeles","phone":"310-493-8192"},{"id":"ChIJKUQUXxW0woARbAREBhX8tTI","name":"Upway LA UpCenter","address":"2400 Marine Ave STE 108, Redondo Beach, CA 90278","materials":["ebike"],"lat":33.89404,"lng":-118.36968,"county":"Los Angeles"},{"id":"ChIJVVVF1ekt3YARkrmaxji5YCk","name":"VINCE'S CYCLERY","address":"11455 E. Carson St., Unit B, Lakewood, CA 90715","materials":["ebike"],"lat":33.83186,"lng":-118.0889,"county":"Los Angeles","phone":"562-263-6089"},{"id":"ChIJb70FmmHJwoARyxD7XIp_CyQ","name":"Washington S.A.F.E. Center","address":"2649 E Washington Blvd, Los Angeles, CA 90021","materials":["cellphones","rechargeable"],"lat":34.01793,"lng":-118.22417,"county":"Los Angeles","phone":"310-809-2133"},{"id":"ChIJ49o1qz-6woARu4m7PbWhYw0","name":"Wheel World Bicycles - Culver City","address":"4051 SEPULVEDA BLVD, Culver City, CA 90230","materials":["ebike"],"lat":34.00735,"lng":-118.41341,"county":"Los Angeles","phone":"310-391-5251"},{"id":"ChIJj2FJt4iewoAR6OwmTf0fsZA","name":"Wheel World Bicycles - WH","address":"22718 VENTURA BLVD, Woodland Hills, CA 91364","materials":["ebike"],"lat":34.16632,"lng":-118.62133,"county":"Los Angeles","phone":"818-224-2044"},{"id":"ChIJ1Xzf256wwoARv1sldwo2zDw","name":"White Cap Construction Supply","address":"5400 McConnell Ave, Los Angeles, CA 90066","materials":["cellphones","rechargeable","singleuse"],"lat":33.97878,"lng":-118.41975,"county":"Los Angeles","phone":"310-482-3330"},{"id":"ChIJ7YSCRQ6UwoAREcKeUG2-DIE","name":"White Cap Construction Supply","address":"8901 Bradley Ave, Sun Valley, CA 91352","materials":["cellphones","rechargeable","singleuse"],"lat":34.23062,"lng":-118.37765,"county":"Los Angeles","phone":"818-504-3170"},{"id":"ChIJGYYCQ3mbwoAR1_eL1aCmJ4Q","name":"White Cap Construction Supply","address":"20131 Sunburst St, Chatsworth, CA 91311","materials":["cellphones","rechargeable","singleuse"],"lat":34.23507,"lng":-118.57278,"county":"Los Angeles"},{"id":"ChIJNasnM4O5woARmuuvzRsrv8Y","name":"Wombi","address":"8586 Washington Blvd, Culver City, CA 90232","materials":["ebike"],"lat":34.0302,"lng":-118.38138,"county":"Los Angeles"},{"id":"ChIJC41zwUq5woARssSROlCFKXI","name":"trek beverly hills","address":"8330 beverly blvd., Los Angeles, CA 90048","materials":["ebike"],"lat":34.07591,"lng":-118.37132,"county":"Los Angeles","phone":"323-638-5786"},{"id":"ChIJ4dyJkSKXwoARaeLnF8AekQs","name":"uBreakiFix","address":"14503 Sherman Way, Van Nuys, CA 91405","materials":["cellphones","rechargeable"],"lat":34.2017,"lng":-118.44935,"county":"Los Angeles","phone":"818-616-9436"},{"id":"ChIJGY3YZwTZwoARv9nZACq2_S0","name":"uBreakiFix","address":"1187 Huntington Drive, Duarte, CA 91010","materials":["cellphones","rechargeable"],"lat":34.14072,"lng":-117.97899,"county":"Los Angeles"},{"id":"ChIJJwSDwnPNwoARD-xZM8HK564","name":"uBreakiFix","address":"12140 Lakewood Blvd, Downey, CA 90242","materials":["cellphones","rechargeable"],"lat":33.92549,"lng":-118.1307,"county":"Los Angeles","phone":"562-401-0800"},{"id":"ChIJq6vOI5aewoARQd6EPsXuL38","name":"uBreakiFix","address":"21842 Ventura Boulevard, Woodland Hills, CA 91364","materials":["cellphones","rechargeable"],"lat":34.16818,"lng":-118.60357,"county":"Los Angeles"},{"id":"ChIJgdlMS48n3YARgO-vBYH3LgM","name":"Alan's Lawn & Garden Center","address":"4621 W 1st Street, Santa Ana, CA 92703","materials":["highenergybattery"],"lat":33.74563,"lng":-117.93078,"county":"Orange","phone":"714-775-1250"},{"id":"ChIJq1Uy0vPW3IARcrsqZPCKj_E","name":"Anaheim HHW","address":"1071 N Blue Gum Street, Anaheim, CA 92806","materials":["cellphones","rechargeable"],"lat":33.84766,"lng":-117.86942,"county":"Orange"},{"id":"ChIJabTUtgf03IAREfHaQcBg5Cg","name":"Bicycles San Clemente","address":"1900 N EL CAMINO REAL, San Clemente, CA 92672","materials":["ebike"],"lat":33.43267,"lng":-117.63366,"county":"Orange","phone":"949-510-3682"},{"id":"ChIJy3HJAjDo3IARHs0yMwy1BVc","name":"BikeCo.com - Lake Forest CA","address":"21098 Bake Parkway #112, Lake Forest, CA 92630","materials":["ebike"],"lat":33.65606,"lng":-117.70144,"county":"Orange","phone":"949-470-1099"},{"id":"ChIJb_RUVb3e3IARhBtt3CkRLSo","name":"City Grounds, Inc.","address":"2072 Alton Pkwy, Irvine, CA 92606","materials":["ebike"],"lat":33.69401,"lng":-117.84288,"county":"Orange","phone":"714-321-6253"},{"id":"ChIJke4xygQh3YARnCPRKZ9Tk0o","name":"Ebike Mobile LLC","address":"8522 Hamilton Ave, Huntington Beach, CA 92646","materials":["ebike"],"lat":33.65008,"lng":-117.97924,"county":"Orange","phone":"714-909-1250"},{"id":"ChIJjez4NFTe3IARqWjacdBx7D0","name":"Groove E-Bikes","address":"3740 Campus Dr, Newport Beach, CA 92660","materials":["ebike"],"lat":33.6632,"lng":-117.87345,"county":"Orange"},{"id":"ChIJe_KFnIwm3YARrLGv8AgLCRc","name":"Huntington Beach HHW","address":"17121 Nichols St, Huntington Beach, CA 92647","materials":["cellphones","rechargeable"],"lat":33.7127,"lng":-117.99713,"county":"Orange","phone":"714-834-4000"},{"id":"ChIJ0R7iBBTd3IARUmdwk6-e_js","name":"Irvine HHW","address":"6411 Oak Canyon, Irvine, CA 92618","materials":["cellphones","rechargeable"],"lat":33.67613,"lng":-117.76607,"county":"Orange"},{"id":"ChIJ9aYeI0Eh3YARAoLHz5-xYQM","name":"Jax Bicycle Center - Huntington Beach","address":"410 Main Street, Huntington Beach, CA 92648","materials":["ebike"],"lat":33.65996,"lng":-117.99873,"county":"Orange","phone":"714-969-8684"},{"id":"ChIJwSaeXPXc3IARwtWhxYo7_xU","name":"Jax Bicycle Center - Irvine","address":"14210 Culver Dr, Irvine, CA 92604","materials":["ebike"],"lat":33.70749,"lng":-117.78365,"county":"Orange","phone":"949-733-1212"},{"id":"ChIJaR_Bgkfv3IARN8I1l6M_mhU","name":"Jax Bicycle Center - Laguna Niguel","address":"27190 Alicia Parkway, Laguna Niguel, CA 92677","materials":["ebike"],"lat":33.56789,"lng":-117.71456,"county":"Orange","phone":"949-364-5771"},{"id":"ChIJOUQM7Qv03IAR1hYAiAzEzKo","name":"Jax Bicycle Center - San Clemente","address":"1421 N El Camino Real, San Clemente, CA 92672","materials":["ebike"],"lat":33.43254,"lng":-117.62457,"county":"Orange"},{"id":"ChIJqZP009DV3IARxzGGX-uQ63Q","name":"Jax Bicycle Center-Fullerton","address":"2520 E Chapman Ave, Fullerton, CA 92831","materials":["ebike"],"lat":33.87394,"lng":-117.8872,"county":"Orange","phone":"714-441-1100"},{"id":"ChIJbwTJNvnT3IARauCh7-l-4aE","name":"Jax Bicycle Center-Yorba Linda","address":"17593 Yorba Linda blvd, Yorba Linda, CA 92886","materials":["ebike"],"lat":33.88881,"lng":-117.82711,"county":"Orange","phone":"714-996-9093"},{"id":"ChIJ9RnkhbHl3IAR_vLD7QagdCM","name":"Laguna Beach Cyclery, Inc.","address":"240 Thalia St, Laguna Beach, CA 92651","materials":["ebike"],"lat":33.53639,"lng":-117.77791,"county":"Orange","phone":"949-494-1522"},{"id":"ChIJ6xSV-N4q3YARV8njsgkgue0","name":"Lowe's","address":"1380 S Beach Blvd, La Habra, CA 90631","materials":["cellphones","highenergybattery","rechargeable"],"lat":33.91348,"lng":-117.96795,"county":"Orange","phone":"562-690-5122"},{"id":"ChIJKd1kKgTW3IARuSzrWSkh8HE","name":"Lowe's","address":"1500 N Lemon St, Anaheim, CA 92801","materials":["cellphones","highenergybattery","rechargeable"],"lat":33.85621,"lng":-117.91637,"county":"Orange","phone":"714-447-6140"},{"id":"ChIJNf0xtBjc3IARuxjxBfGAkXs","name":"Lowe's","address":"2500 Park Ave, Tustin, CA 92782","materials":["cellphones","highenergybattery","rechargeable"],"lat":33.6991,"lng":-117.82455,"county":"Orange"},{"id":"ChIJq1TnL6nr3IAR_NSDPPjmdmw","name":"Lowe's","address":"30481 Avenida de Las Flores, Rancho Santa Margarita, CA 92688","materials":["cellphones","highenergybattery","rechargeable"],"lat":33.64208,"lng":-117.60171,"county":"Orange"},{"id":"ChIJtSV2QPcm3YARxBH6r9qXaJQ","name":"Lowe's","address":"8175 Warner Ave, Huntington Beach, CA 92647","materials":["cellphones","highenergybattery","rechargeable"],"lat":33.71683,"lng":-117.98502,"county":"Orange","phone":"714-907-9006"},{"id":"ChIJza9-ipDz3IARDF1wbASgCE4","name":"Lowe's","address":"907 Avenida Pico, San Clemente, CA 92673","materials":["cellphones","highenergybattery","rechargeable"],"lat":33.45355,"lng":-117.60972,"county":"Orange"},{"id":"ChIJVVUV8iDo3IARq6wucvm7qH8","name":"M Plus Motors","address":"13845Alton Parkway Suite B, Irvine, CA 92530","materials":["cellphones","rechargeable","singleuse"],"lat":33.66279,"lng":-117.7103,"county":"Orange","phone":"949-878-1518"},{"id":"ChIJbwg0ltUr3YARbseNvkv_eoo","name":"Milwaukee Factory Service Centers","address":"1130 N Magnolia Ave, Anaheim, CA 92801","materials":["rechargeable"],"lat":33.8481,"lng":-117.97565,"county":"Orange"},{"id":"ChIJae0ekIbR3IARfl1jjdaa-es","name":"Pedego - Yorba Linda","address":"20355 Yorba Linda Blvd Ste B, Yorba Linda, CA 92886","materials":["ebike"],"lat":33.89123,"lng":-117.7762,"county":"Orange","phone":"714-485-2059"},{"id":"ChIJD3iDx_Tg3IARvSKkp62CvPM","name":"Pedego Corona Del Mar","address":"2515 East Coast Hwy, Corona Del Mar, CA 92625","materials":["ebike"],"lat":33.60342,"lng":-117.87388,"county":"Orange","phone":"949-612-7989"},{"id":"ChIJLwTWolsn3YARt8J8hyIlJIk","name":"Pedego Electric Bikes - Corporate Office","address":"11230 Grace Avenue, Fountain Valley, CA 92708","materials":["ebike"],"lat":33.70661,"lng":-117.933,"county":"Orange","phone":"800-646-8604"},{"id":"ChIJAc6UGq_r3IARhogSJ-4PaG8","name":"Pedego RSM","address":"30092 Santa Margarita Pkwy. Ste J, Rancho Santa Margarita, CA 92688","materials":["ebike"],"lat":33.64029,"lng":-117.6045,"county":"Orange","phone":"949-635-8160"},{"id":"ChIJ4SMMUkIm3YARzw2J9GrtAEU","name":"REI - Huntington Beach","address":"7777 Edinger Ave, Huntington Beach, CA 92647","materials":["ebike"],"lat":33.73257,"lng":-117.99217,"county":"Orange","phone":"714-379-1938"},{"id":"ChIJSxEpxOjo3IAR3zfWfhdxSRc","name":"REI - Laguna Hills","address":"24271 AVENIDA DE LA CARLOTA, Laguna Hills, CA 92653","materials":["ebike"],"lat":33.60824,"lng":-117.70398,"county":"Orange","phone":"949-741-7838"},{"id":"ChIJC4_AY3fc3IARvkEIPspgFJg","name":"REI - Tustin","address":"2962 El Camino Real, Tustin, CA 92782","materials":["ebike"],"lat":33.72151,"lng":-117.7957,"county":"Orange"},{"id":"EjgyNzgyNSBTYW50YSBNYXJnYXJpdGEgUGt3eSwgTWlzc2lvbiBWaWVqbywgQ0EgOTI2OTEsIFVTQSIyEjAKFAoSCUVPjrqJ6dyAEWjANZCD04YHELHZASoUChIJ_5z7nUvq3IARA9xv6-QrzHc","name":"Rock N Road Cyclery - Mission Viejo","address":"27825 Santa Margarita Pkwy, Mission Viejo, CA 92691","materials":["ebike"],"lat":33.65224,"lng":-117.64548,"county":"Orange","phone":"949-859-5076"},{"id":"ChIJMzm59gHR3IARLadyILKcJkY","name":"Rock N Road Cyclery Anaheim Hills","address":"5701 E. Santa Ana Canyon Rd suite F, Anaheim, CA 92807","materials":["ebike"],"lat":33.85207,"lng":-117.78981,"county":"Orange","phone":"714-998-2453"},{"id":"ChIJlRlNSznv3IARqN1Ok7Ap1NQ","name":"Rock N Road Cyclery Laguna Niguel","address":"27281 La Paz Rd., Laguna Niguel, CA 92677","materials":["ebike"],"lat":33.56639,"lng":-117.70943,"county":"Orange","phone":"949-360-8045"},{"id":"ChIJr-tr_ind3IARgHcpaSI16E4","name":"Rock n Road Cyclery - Irvine","address":"6250 Irvine Blvd, Irvine, CA 92620","materials":["ebike"],"lat":33.69744,"lng":-117.7435,"county":"Orange","phone":"949-733-2453"},{"id":"ChIJAx2AKkTy3IARc383dcIYAWY","name":"San Juan Capistrano HHW","address":"32250 Avenida La Pata, San Juan Capistrano, CA 92675","materials":["cellphones","rechargeable"],"lat":33.49398,"lng":-117.61419,"county":"Orange"},{"id":"ChIJ4YhttAso3YAR48WIv0vHfvs","name":"The Home Depot","address":"10801 Garden Grove Blvd, Garden Grove, CA 92843","materials":["rechargeable"],"lat":33.77491,"lng":-117.94449,"county":"Orange"},{"id":"ChIJ4wduE3nf3IAR_kvsSxiiMRI","name":"The Home Depot","address":"2300 Harbor Blvd Ste F, Costa Mesa, CA 92626","materials":["rechargeable"],"lat":33.65899,"lng":-117.91714,"county":"Orange","phone":"949-646-4220"},{"id":"ChIJ7bHV7UrX3IARsuno5gs6-tg","name":"The Home Depot","address":"1855 N Tustin St, Orange, CA 92865","materials":["rechargeable"],"lat":33.81824,"lng":-117.83316,"county":"Orange"},{"id":"ChIJ7e4AqK4o3YARihoVQQFcPIU","name":"The Home Depot","address":"6633 Westminster Blvd, Westminster, CA 92683","materials":["rechargeable"],"lat":33.76121,"lng":-118.0129,"county":"Orange"},{"id":"ChIJ8zF79s_R3IARPaADm-WPEbo","name":"The Home Depot","address":"1095 N Pullman St, Anaheim, CA 92807","materials":["rechargeable"],"lat":33.87101,"lng":-117.74998,"county":"Orange","phone":"714-921-1215"},{"id":"ChIJD1VLLKYu3YARhb9YeDIdaGA","name":"The Home Depot","address":"5800 Lincoln Ave, Cypress, CA 90630","materials":["rechargeable"],"lat":33.83045,"lng":-118.03091,"county":"Orange"},{"id":"ChIJDS9Mi3fc3IARfUJrmU1opTE","name":"The Home Depot","address":"2782 El Camino Real, Tustin, CA 92782","materials":["rechargeable"],"lat":33.72454,"lng":-117.79615,"county":"Orange"},{"id":"ChIJKwg5zFfU3IARvnCyZAU1oZQ","name":"The Home Depot","address":"2455 E Imperial Hwy, Brea, CA 92821","materials":["rechargeable"],"lat":33.91334,"lng":-117.86905,"county":"Orange","phone":"714-990-8493"},{"id":"ChIJQX5NJPHo3IARkA8Xn2VHHQ0","name":"The Home Depot","address":"23651 El Toro Rd, Lake Forest, CA 92630","materials":["rechargeable"],"lat":33.61819,"lng":-117.70558,"county":"Orange"},{"id":"ChIJR5yEkz7v3IARQCKxtOBK4hE","name":"The Home Depot","address":"27401 La Paz Rd, Laguna Niguel, CA 92677","materials":["rechargeable"],"lat":33.56488,"lng":-117.70926,"county":"Orange"},{"id":"ChIJSXS4QZvo3IARbA4AiEjvhTY","name":"The Home Depot","address":"24332 El Toro Rd, Laguna Hills, CA 92637","materials":["rechargeable"],"lat":33.60667,"lng":-117.73056,"county":"Orange"},{"id":"ChIJU4-xuNXc3IARya2kvh9If0k","name":"The Home Depot","address":"6200 Irvine Blvd, Irvine, CA 92620","materials":["rechargeable"],"lat":33.69967,"lng":-117.74137,"county":"Orange"},{"id":"ChIJVek8RGrX3IARlFxom3eaxOg","name":"The Home Depot","address":"435 W Katella Ave, Orange, CA 92867","materials":["rechargeable"],"lat":33.81083,"lng":-117.85654,"county":"Orange"},{"id":"ChIJY-CUzI8p3YARlf50JU8dSuk","name":"The Home Depot","address":"800 N Brookhurst St, Anaheim, CA 92801","materials":["rechargeable"],"lat":33.84188,"lng":-117.9573,"county":"Orange","phone":"714-533-9930"},{"id":"ChIJYU4pdNUm3YARylsyUqXiOAQ","name":"The Home Depot","address":"19101 Magnolia St, Huntington Beach, CA 92646","materials":["rechargeable"],"lat":33.68525,"lng":-117.97295,"county":"Orange"},{"id":"ChIJbYsUE3nW3IARu0n2IiNqGoA","name":"The Home Depot","address":"625 S Placentia Ave, Fullerton, CA 92831","materials":["rechargeable"],"lat":33.86512,"lng":-117.88582,"county":"Orange"},{"id":"ChIJeWM_SOHp3IARtussum0k-mo","name":"The Home Depot","address":"20021 Lake Forest Dr, Lake Forest, CA 92630","materials":["rechargeable"],"lat":33.67125,"lng":-117.66237,"county":"Orange"},{"id":"ChIJiZmzUUXZ3IARehKZ0XWmCAU","name":"The Home Depot","address":"1750 E Edinger Ave, Santa Ana, CA 92705","materials":["rechargeable"],"lat":33.7253,"lng":-117.84326,"county":"Orange","phone":"714-259-1030"},{"id":"ChIJqSUFPKQq3YAR8JoQMJpSgMo","name":"The Home Depot","address":"600 S Harbor Blvd, La Habra, CA 90631","materials":["rechargeable"],"lat":33.92617,"lng":-117.93204,"county":"Orange","phone":"562-690-6006"},{"id":"ChIJtyGr7uko3YARO5CBbSFRlhk","name":"The Home Depot","address":"12131 Beach Blvd, Stanton, CA 90680","materials":["rechargeable"],"lat":33.78667,"lng":-117.9941,"county":"Orange","phone":"714-892-9714"},{"id":"ChIJU-ytYNnb3IAR7FctaN3INkY","name":"The Path Bike Shop","address":"215 W. First St, Tustin, CA 92780","materials":["ebike"],"lat":33.74591,"lng":-117.82564,"county":"Orange","phone":"714-669-0784"},{"id":"ChIJnzlPspne3IARIcroJzFC2z4","name":"Trail's End Cycling Center","address":"17145 Von Karman Avenue, Irvine, CA 92614","materials":["ebike"],"lat":33.6917,"lng":-117.84083,"county":"Orange","phone":"949-863-1982"},{"id":"ChIJR_pHcdvb3IARQVh5xPJ1QJw","name":"Trek Bicycle Tustin","address":"115 N Prospect Ave, Tustin, CA 92780","materials":["ebike"],"lat":33.74639,"lng":-117.82196,"county":"Orange","phone":"714-544-6091"},{"id":"ChIJyxBECzoo3YARAwdX5UJNOwY","name":"West Coast E-Bikes","address":"1742 S Euclid St, Anaheim, CA 92802","materials":["ebike"],"lat":33.80363,"lng":-117.94107,"county":"Orange","phone":"714-833-5551"},{"id":"ChIJM3YL1b3x3IAR5Lr1UuOTyGo","name":"White Cap Construction Supply","address":"33061 Camino Capistrano, San Juan Capistrano, CA 92675","materials":["cellphones","rechargeable","singleuse"],"lat":33.48291,"lng":-117.66977,"county":"Orange","phone":"949-493-9448"},{"id":"ChIJNfWpsn7z3IARDTpOeXiEQ24","name":"YT MILL San Clemente","address":"211 Calle Pintoresco, San Clemente, CA 92672","materials":["ebike"],"lat":33.45015,"lng":-117.59163,"county":"Orange","phone":"833-932-7398"},{"id":"ChIJp59CkefZ3IARWHwujQaqJB0","name":"orange cycle","address":"210 S. Glassell St., Orange, CA 92866","materials":["ebike"],"lat":33.78579,"lng":-117.85353,"county":"Orange","phone":"714-532-6838"},{"id":"ChIJq6paGvro3IARZtGVjtwudk0","name":"uBreakiFix","address":"23600 El Toro Road, Suite P1-D, Lake Forest, CA 92630","materials":["cellphones","rechargeable"],"lat":33.61955,"lng":-117.70119,"county":"Orange","phone":"949-203-1700"},{"id":"ChIJ4a9rC2ay3IARg0W5zQiWPIE","name":"Agua Mansa HHW Facility","address":"1780 Agua Mansa Rd, Riverside, CA 92509","materials":["cellphones","rechargeable"],"lat":34.02374,"lng":-117.37959,"county":"Riverside","phone":"951-486-3200"},{"id":"ChIJQ3YmmHr-2oARZIdRkSPi-ow","name":"Apple","address":"73445 El Paseo, Palm Desert, CA 92260","materials":["cellphones","rechargeable"],"lat":33.71945,"lng":-116.38319,"county":"Riverside"},{"id":"ChIJycCKBJb42oARLZ9Jv6EH-Ac","name":"Electric bikes of La Quinta (Pedego La Quinta)","address":"78134 Calle Tampico S, La Quinta, CA 92253","materials":["ebike"],"lat":33.67925,"lng":-116.30089,"county":"Riverside","phone":"760-972-4017"},{"id":"ChIJkdwyJwp-24ARt41FaTNSs84","name":"Jax Bicycle Center - Murrieta","address":"26612 Margarita Road, Murrieta, CA 92563","materials":["ebike"],"lat":33.5472,"lng":-117.15575,"county":"Riverside","phone":"951-239-8239"},{"id":"ChIJ08vpUO7I3IAR9CHA3Rqjfyg","name":"Jenson USA Corona","address":"2410 Wardlow Rd, Corona, CA 92878","materials":["ebike"],"lat":33.88126,"lng":-117.61075,"county":"Riverside","phone":"951-736-0700"},{"id":"ChIJhz2F03yv3IARAUWEoTCwbLs","name":"JensonUSA - Riverside","address":"1615 Eastridge Ave, Riverside, CA 92507","materials":["ebike"],"lat":33.93069,"lng":-117.30328,"county":"Riverside","phone":"951-300-2940"},{"id":"ChIJa4_AzYiZ3IARqE95xf-hlps","name":"Lake Elsinore HHW Facility","address":"521 N Langstaff St, Lake Elsinore, CA 92530","materials":["cellphones","rechargeable"],"lat":33.67815,"lng":-117.32841,"county":"Riverside","phone":"951-486-3200"},{"id":"ChIJ65b7LQey3IARMnlIIUnUsRo","name":"Lawnmower Center","address":"1690 Main Street, Riverside, CA 92501","materials":["highenergybattery"],"lat":34.00086,"lng":-117.36393,"county":"Riverside","phone":"951-682-9753"},{"id":"ChIJ1f6ABB352oARLFJPax-g19U","name":"Lowe's","address":"78865 Highway 111, La Quinta, CA 92253","materials":["cellphones","highenergybattery","rechargeable"],"lat":33.71,"lng":-116.29195,"county":"Riverside","phone":"760-771-5566"},{"id":"ChIJ4WaT-uZl24AR2vMiaknJ6HM","name":"Lowe's","address":"350 S Sanderson Ave, Hemet, CA 92545","materials":["cellphones","highenergybattery","rechargeable"],"lat":33.74254,"lng":-117.00548,"county":"Riverside"},{"id":"ChIJK5y2FXhi24ARNlwRkTlGpfM","name":"Lowe's","address":"30472 Haun Rd, Menifee, CA 92584","materials":["cellphones","highenergybattery","rechargeable"],"lat":33.67848,"lng":-117.17222,"county":"Riverside"},{"id":"ChIJS3qQmfi33IARa1Q4qboEcCE","name":"Lowe's","address":"1285 Magnolia Ave, Corona, CA 92879","materials":["cellphones","highenergybattery","rechargeable"],"lat":33.86869,"lng":-117.5417,"county":"Riverside"},{"id":"ChIJp27GShb92oARDMSQiH_8QZo","name":"Lowe's","address":"35900 Monterey Ave, Palm Desert, CA 92211","materials":["cellphones","highenergybattery","rechargeable"],"lat":33.78846,"lng":-116.38656,"county":"Riverside"},{"id":"ChIJqVMOvsyw3IAR0OQ0z8UEBSA","name":"Lowe's","address":"9851 Magnolia Ave, Riverside, CA 92503","materials":["cellphones","rechargeable"],"lat":33.91789,"lng":-117.45454,"county":"Riverside","phone":"909-509-5500"},{"id":"ChIJvQ8Ztmp-24ARQyxR4x7EOV4","name":"Lowe's","address":"40390 Winchester Rd, Temecula, CA 92591","materials":["cellphones","highenergybattery","rechargeable"],"lat":33.53109,"lng":-117.14964,"county":"Riverside"},{"id":"ChIJwR71y-wc24ARilgGe3QxdJM","name":"Lowe's","address":"5201 E Ramon Rd, Palm Springs, CA 92264","materials":["cellphones","highenergybattery","rechargeable"],"lat":33.81469,"lng":-116.48983,"county":"Riverside","phone":"760-866-1901"},{"id":"ChIJwZo6fL-Z3IARbprWIvQ-CMU","name":"Lowe's","address":"29335 Central Ave, Lake Elsinore, CA 92532","materials":["cellphones","highenergybattery","rechargeable"],"lat":33.69483,"lng":-117.33781,"county":"Riverside"},{"id":"ChIJyRWnRkaC3IAR8yIVWruDQCM","name":"Lowe's","address":"24701 Madison Ave, Murrieta, CA 92562","materials":["cellphones","highenergybattery","rechargeable"],"lat":33.56082,"lng":-117.2068,"county":"Riverside"},{"id":"EjA4MDEgUyBSZWRsYW5kcyBBdmUgYmxkZy0yLCBQZXJyaXMsIENBIDkyNTcxLCBVU0EiIhogChYKFAoSCXNUs6SEn9yAEREICPHJIEEqEgZibGRnLTI","name":"Lowes","address":"801 S Redlands Ave Bldg-2, Perris, CA 92570","materials":["highenergybattery"],"lat":33.77401,"lng":-117.21396,"county":"Riverside","phone":"951-436-4575"},{"id":"ChIJawS43sad3IAR8c2LCi5YVgQ","name":"MENIFEE BICYCLES","address":"26100 Newport Rd STE A20, Menifee, CA 92584","materials":["ebike"],"lat":33.68517,"lng":-117.20409,"county":"Riverside","phone":"951-672-1637"},{"id":"ChIJq5CK_jyC3IARtQTWF0lE6Ds","name":"Murrieta ABOP Facility","address":"25315 Jefferson Ave, Murrieta, CA 92562","materials":["cellphones","rechargeable"],"lat":33.55142,"lng":-117.20018,"county":"Riverside","phone":"951-486-3200"},{"id":"ChIJxzVJoOfJ3IARYhZXzywVoMg","name":"Norco Cycle","address":"3250 Hamner Ave., Unit 204, Norco, CA 92860","materials":["ebike"],"lat":33.9293,"lng":-117.55854,"county":"Riverside"},{"id":"ChIJm7ca95V_24AR64wJ6gIIL6w","name":"Old Town Bicycle Co Temecula","address":"28780 Old Town Front St Ste. B9, Temecula, CA 92590","materials":["ebike"],"lat":33.48887,"lng":-117.145,"county":"Riverside","phone":"951-225-9700"},{"id":"ChIJ_52XwXz-2oAR9aCQzTMGpKg","name":"Palm Desert Bikes n Brew","address":"73-865 Highway 111, Palm Desert, CA 92260","materials":["ebike"],"lat":33.72087,"lng":-116.37631,"county":"Riverside","phone":"760-340-3861"},{"id":"ChIJ0-SQEZYc24ARnTQ8RlGunUA","name":"Palm Springs HHW Facility","address":"1100 Vella Rd, Palm Springs, CA 92264","materials":["cellphones","rechargeable"],"lat":33.80716,"lng":-116.49699,"county":"Riverside","phone":"951-486-3200"},{"id":"ChIJGV24k25-24AR6r5ky50XriQ","name":"Pedego Temecula","address":"27287 Nicolas Rd, Temecula, CA 92591","materials":["ebike"],"lat":33.53798,"lng":-117.14295,"county":"Riverside","phone":"951-401-2050"},{"id":"ChIJgxtI__L92oAR9LKb4yNrTDE","name":"REI - Rancho Mirage","address":"71800 HWY 111, Rancho Mirage, CA 92270","materials":["ebike"],"lat":33.73909,"lng":-116.40934,"county":"Riverside","phone":"760-914-9700"},{"id":"ChIJ9bk4o1V_24ARd5G80rfrfLE","name":"THE BIKE SHOP","address":"32835 Temecula Pkwy, Temecula, CA 92592","materials":["ebike"],"lat":33.48446,"lng":-117.08302,"county":"Riverside","phone":"951-303-9477"},{"id":"ChIJ2dH8Kz6C3IARiAzu6KfkkrE","name":"The Home Depot","address":"25100 Madison Ave, Murrieta, CA 92562","materials":["rechargeable"],"lat":33.55693,"lng":-117.19724,"county":"Riverside","phone":"909-698-1555"},{"id":"ChIJ34_isjSe3IARwFopL3_tspE","name":"The Home Depot","address":"3150 Case Rd Bldg P, Perris, CA 92570","materials":["rechargeable"],"lat":33.74716,"lng":-117.19209,"county":"Riverside"},{"id":"ChIJ3cPWHeBl24ARQ1hF7inYb0k","name":"The Home Depot","address":"3400 W Florida Ave, Hemet, CA 92545","materials":["rechargeable"],"lat":33.74933,"lng":-117.00764,"county":"Riverside"},{"id":"ChIJ7-jqYGn32oARljo5QTySefY","name":"The Home Depot","address":"42100 Jackson St, Indio, CA 92203","materials":["rechargeable"],"lat":33.74257,"lng":-116.21303,"county":"Riverside","phone":"760-347-7410"},{"id":"ChIJ78VxTsCZ3IARm4uV2WO2N90","name":"The Home Depot","address":"18282 Collier Ave, Lake Elsinore, CA 92530","materials":["rechargeable"],"lat":33.6928,"lng":-117.34016,"county":"Riverside"},{"id":"ChIJC9kPMGJD24ARVNO7oa0wuk8","name":"The Home Depot","address":"1480 E 2nd St, Beaumont, CA 92223","materials":["rechargeable"],"lat":33.9255,"lng":-116.95562,"county":"Riverside"},{"id":"ChIJEz6oFeSm3IARfvUAINonDpI","name":"The Home Depot","address":"15975 Perris Blvd, Moreno Valley, CA 92551","materials":["rechargeable"],"lat":33.88983,"lng":-117.22782,"county":"Riverside","phone":"951-485-5400"},{"id":"ChIJQeMTGTr92oARgviPPaDZsrY","name":"The Home Depot","address":"34249 Monterey Ave, Rancho Mirage, CA 92270","materials":["rechargeable"],"lat":33.7987,"lng":-116.38933,"county":"Riverside"},{"id":"ChIJ_14jlVP42oAR-NMNlgcQObI","name":"The Home Depot","address":"79900 Highway 111, La Quinta, CA 92253","materials":["rechargeable"],"lat":33.70892,"lng":-116.27051,"county":"Riverside"},{"id":"ChIJed6IlVCw3IAR5fNRyo7OUb8","name":"The Home Depot","address":"3323 Madison St, Riverside, CA 92504","materials":["rechargeable"],"lat":33.93599,"lng":-117.40131,"county":"Riverside"},{"id":"ChIJgZTM615_24ARjbEcmgCnPKw","name":"The Home Depot","address":"32020 Temecula Pkwy, Temecula, CA 92592","materials":["rechargeable"],"lat":33.48296,"lng":-117.09871,"county":"Riverside"},{"id":"ChIJo_8JEqyo3IARyF6xH-4sq2A","name":"The Home Depot","address":"12255 Pigeon Pass Rd, Moreno Valley, CA 92557","materials":["rechargeable"],"lat":33.94299,"lng":-117.26302,"county":"Riverside"},{"id":"ChIJr44sYm243IARFKJeJ7xTszI","name":"The Home Depot","address":"1355 E Ontario Ave, Corona, CA 92881","materials":["rechargeable"],"lat":33.84905,"lng":-117.53766,"county":"Riverside"},{"id":"ChIJvfPaq_Ic24ARo4AMbIZEWXU","name":"The Home Depot","address":"5200 E Ramon Rd Bldg A, Palm Springs, CA 92264","materials":["rechargeable"],"lat":33.81846,"lng":-116.48987,"county":"Riverside"},{"id":"Eig0OTAgTiBNY0tpbmxleSBTdCwgQ29yb25hLCBDQSA5Mjg3OSwgVVNBIjESLwoUChIJjbV2to-33IARv8gX68Ki-QgQ6gMqFAoSCQu4__6Rt9yAEenpHACto9sA","name":"The Home Depot","address":"490 N McKinley St, Corona, CA 92879","materials":["rechargeable"],"lat":33.88497,"lng":-117.51685,"county":"Riverside"},{"id":"ChIJFTpQKu_72oARN3b48r4D_LY","name":"Trek Bicycle Palm Desert","address":"77750 Country Club Dr, Palm Desert, CA 92211","materials":["ebike"],"lat":33.7587,"lng":-116.30748,"county":"Riverside"},{"id":"ChIJo3AmrQkb24AR7x6f8zoH1lE","name":"Trek Bicycle Palm Springs","address":"611 s. palm canyon dr, Palm Springs, CA 92264","materials":["ebike"],"lat":33.81347,"lng":-116.54642,"county":"Riverside","phone":"760-325-9319"},{"id":"ChIJhVvMEHr-2oARdTiXv7HCQmE","name":"Tri A Bike Palm Desert Ca","address":"44841 San Pablo, Palm Desert, CA 92260","materials":["ebike"],"lat":33.72262,"lng":-116.38288,"county":"Riverside","phone":"760-340-2840"},{"id":"ChIJYZTuqhoS24AR1ztQGfiMHOk","name":"Village Hardware","address":"54190 hwy 243, Idyllwild, CA 92549","materials":["highenergybattery"],"lat":33.74569,"lng":-116.71416,"county":"Riverside","phone":"951-659-4457"},{"id":"ChIJM5e5R8x_24ARuZz89Iy9Wrc","name":"White Cap Construction Supply","address":"28065 Diaz Rd, Temecula, CA 92590","materials":["cellphones","rechargeable","singleuse"],"lat":33.50299,"lng":-117.15799,"county":"Riverside","phone":"951-694-5414"},{"id":"ChIJEzrawZMc24ARkDOcMHnJTxc","name":"Yoshi Lawnmower Shop","address":"652 S Williams Rd, Palm Springs, CA 92264","materials":["highenergybattery"],"lat":33.81322,"lng":-116.49488,"county":"Riverside","phone":"760-778-4248"},{"id":"ChIJ-eFgzLV_24ARVJSc9TjFylQ","name":"uBreakiFix","address":"27540 Ynez Road, Temecula, CA 92591","materials":["cellphones","rechargeable"],"lat":33.50533,"lng":-117.14789,"county":"Riverside"},{"id":"ChIJM-7cy3Kq3IARZYeC8qY8xf0","name":"Cyclery USA","address":"21 West Stuart Ave, Redlands, CA 92374","materials":["ebike"],"lat":34.05942,"lng":-117.18366,"county":"San Bernardino"},{"id":"ChIJGQLTu3U2w4ARgCc0k3XDxwk","name":"Cyclery USA - Rancho Cucamonga","address":"7890 Haven Ave #9, Rancho Cucamonga, CA 91730","materials":["ebike"],"lat":34.11045,"lng":-117.57707,"county":"San Bernardino"},{"id":"ChIJs_r8I31Mw4ARsqTYM4FG9Y0","name":"Cypress Neighborhood Center","address":"8380 Cypress Ave, Fontana, CA 92335","materials":["rechargeable"],"lat":34.10175,"lng":-117.44493,"county":"San Bernardino","phone":"909-349-6988"},{"id":"ChIJpXhKk2xNw4ARj0Rtj-jypIs","name":"DAN'S LAWNMOWER CENTER","address":"662 W RIALTO AVE, Rialto, CA 92376","materials":["highenergybattery"],"lat":34.10019,"lng":-117.38324,"county":"San Bernardino","phone":"909-875-0811"},{"id":"ChIJAdd6Jo80w4ARuzdgdd-7egc","name":"DeWalt Factory Service Center","address":"1352 S Grove Ave, Ontario, CA 91761","materials":["cellphones","rechargeable"],"lat":34.04899,"lng":-117.62907,"county":"San Bernardino"},{"id":"ChIJIyNnz8i03IARXoyMvSuM3n4","name":"Don Day Community Center","address":"14501 Live Oak Ave, Fontana, CA 92337","materials":["rechargeable"],"lat":34.03959,"lng":-117.4839,"county":"San Bernardino","phone":"909-349-6997"},{"id":"ChIJA_-OypAxw4AR2rvdS1F-KBM","name":"EMY Sporting Gear","address":"4650 Arrow HWY, Montclair, CA 91763","materials":["ebike"],"lat":34.09311,"lng":-117.70325,"county":"San Bernardino","phone":"909-399-0821"},{"id":"ChIJvVPE1GFMw4ARCLWlJbob5xM","name":"Fontana City Hall","address":"8353 Sierra Ave, Fontana, CA 92335","materials":["rechargeable"],"lat":34.10214,"lng":-117.43533,"county":"San Bernardino","phone":"909-350-7600"},{"id":"ChIJjbhkoo5Mw4ARJ7uyxf54yRY","name":"Fontana Community Senior Center","address":"16710 Ceres Ave, Fontana, CA 92335","materials":["rechargeable"],"lat":34.09461,"lng":-117.43865,"county":"San Bernardino","phone":"909-854-5151"},{"id":"ChIJy2FxwItMw4AR_V42Vwmzn7w","name":"Fontana Community Services","address":"16860 Valencia Ave, Fontana, CA 92335","materials":["rechargeable"],"lat":34.09775,"lng":-117.4366,"county":"San Bernardino","phone":"909-349-6900"},{"id":"ChIJh61hMk9Jw4ARC_wd_2SLSTI","name":"Fontana Park","address":"15556 Summit Ave, Fontana, CA 92336","materials":["rechargeable"],"lat":34.151,"lng":-117.46526,"county":"San Bernardino","phone":"909-854-5111"},{"id":"ChIJS5nKpSxKw4ARyTiYmsYBVBs","name":"Heritage Center","address":"7350 W Liberty Pkwy, Fontana, CA 92336","materials":["rechargeable"],"lat":34.12095,"lng":-117.50355,"county":"San Bernardino","phone":"909-349-6968"},{"id":"ChIJLbD2SIZMw4AR1B4sPXNXmeU","name":"Household Hazardous Waste","address":"16454 Orange Way, Fontana, CA 92335","materials":["cellphones","rechargeable"],"lat":34.09615,"lng":-117.44554,"county":"San Bernardino","phone":"909-350-6797"},{"id":"ChIJNfGvSmszw4ARQtMglGZ6D6s","name":"Incycle Chino","address":"12345 Mountain Ave, Chino, CA 91710","materials":["ebike"],"lat":34.02879,"lng":-117.66659,"county":"San Bernardino","phone":"909-590-3515"},{"id":"ChIJJ0nzwJdMw4ARBM1kHHKZIf4","name":"Jack Bulik Teen Center","address":"16581 Filbert St, Fontana, CA 92335","materials":["rechargeable"],"lat":34.08033,"lng":-117.44169,"county":"San Bernardino","phone":"909-349-6984"},{"id":"ChIJvwqsf4NUw4ARN-ec-e5nOaY","name":"La Verne Power Equipment, Inc. in San Bernardino","address":"1175 Highland Ave, San Bernardino, CA 92404","materials":["highenergybattery"],"lat":34.13559,"lng":-117.26191,"county":"San Bernardino","phone":"909-889-0425"},{"id":"ChIJ19qeqB5Mw4AR71aXKxzBdpA","name":"Lowe's","address":"16851 Sierra Lakes Pkwy, Fontana, CA 92336","materials":["cellphones","highenergybattery","rechargeable"],"lat":34.13799,"lng":-117.43728,"county":"San Bernardino","phone":"909-350-7900"},{"id":"ChIJ6XZ6aCPN3IARVtK1pt1rWoU","name":"Lowe's","address":"4777 Chino Hills Pkwy, Chino Hills, CA 91709","materials":["cellphones","highenergybattery","rechargeable"],"lat":33.98019,"lng":-117.70051,"county":"San Bernardino"},{"id":"ChIJVTmCMeFgw4AR7TG2IomdEDI","name":"Lowe's","address":"12189 Apple Valley Rd, Apple Valley, CA 92308","materials":["cellphones","highenergybattery","rechargeable"],"lat":34.47288,"lng":-117.24021,"county":"San Bernardino","phone":"760-961-3000"},{"id":"ChIJZQdpCLiq3IARs8NQlqCbUHo","name":"Lowe's","address":"27847 Greenspot Rd, Highland, CA 92346","materials":["cellphones","highenergybattery","rechargeable"],"lat":34.10671,"lng":-117.19698,"county":"San Bernardino","phone":"909-557-9010"},{"id":"ChIJpyBMEb00w4ARSbcqT-lUrbQ","name":"Lowe's","address":"2390 S Grove Ave, Ontario, CA 91761","materials":["cellphones","highenergybattery","rechargeable"],"lat":34.03232,"lng":-117.62955,"county":"San Bernardino","phone":"909-969-9053"},{"id":"ChIJq6lahA4xw4ARDEhLHdO6IWI","name":"Lowe's","address":"1659 W Foothill Blvd, Upland, CA 91786","materials":["cellphones","highenergybattery","rechargeable"],"lat":34.10944,"lng":-117.68235,"county":"San Bernardino","phone":"909-982-4795"},{"id":"ChIJsfgVa06q3IARe2k-iWdskhA","name":"Lowe's","address":"1725 W Redlands Blvd, Redlands, CA 92373","materials":["cellphones","highenergybattery","rechargeable"],"lat":34.06094,"lng":-117.21348,"county":"San Bernardino"},{"id":"ChIJtyTCxmMtw4AR9DTTnT9Z5pQ","name":"Lowe's","address":"13251 Peyton Dr, Chino Hills, CA 91709","materials":["cellphones","highenergybattery","rechargeable"],"lat":34.01333,"lng":-117.74064,"county":"San Bernardino","phone":"909-627-6039"},{"id":"ChIJvcLD8Pk1w4ARfkgn--oGmto","name":"Lowe's","address":"11399 Foothill Blvd, Rancho Cucamonga, CA 91730","materials":["cellphones","highenergybattery","rechargeable"],"lat":34.10502,"lng":-117.55442,"county":"San Bernardino","phone":"909-476-9697"},{"id":"ChIJzfiFIyNmw4ARs6DTMh0aL50","name":"Lowe's","address":"14333 Bear Valley Rd, Victorville, CA 92392","materials":["cellphones","highenergybattery","rechargeable"],"lat":34.46836,"lng":-117.35118,"county":"San Bernardino","phone":"760-949-9565"},{"id":"ChIJW49Gwluz3IARaP2Ayy22nKw","name":"Mary Vagle Nature Center","address":"11501 Cypress Ave, Fontana, CA 92337","materials":["rechargeable"],"lat":34.04334,"lng":-117.44874,"county":"San Bernardino","phone":"909-349-6994"},{"id":"ChIJyydR3YpMw4ARAk1ntimwoLA","name":"Miller Fitness Center","address":"17004 Arrow Blvd, Fontana, CA 92335","materials":["rechargeable"],"lat":34.1005,"lng":-117.43343,"county":"San Bernardino","phone":"909-349-6972"},{"id":"ChIJ56s_7Wgxw4AR_SCUXicV_hE","name":"Pedego Upland","address":"313 N. Mountain Ave, Upland, CA 91786","materials":["ebike"],"lat":34.09748,"lng":-117.67071,"county":"San Bernardino"},{"id":"ChIJCcQL9g9Kw4ARkv5Ii7JmFzY","name":"REI - Rancho Cucamonga","address":"12218 Foothill Blvd, Rancho Cucamonga, CA 91739","materials":["ebike"],"lat":34.10766,"lng":-117.53888,"county":"San Bernardino","phone":"909-646-8360"},{"id":"ChIJ22DcqVYxw4AR_PwrrmUvpvE","name":"Roys Cyclery","address":"106 e 9th street, Upland, CA 91786","materials":["ebike"],"lat":34.09586,"lng":-117.64947,"county":"San Bernardino","phone":"909-982-8849"},{"id":"ChIJT8UIcBBTw4AR5t8XpfrFJQI","name":"San Bernardino County Fire - HHW","address":"2824 E W St, San Bernardino, CA 92415","materials":["cellphones","rechargeable","singleuse"],"lat":34.13016,"lng":-117.26908,"county":"San Bernardino"},{"id":"ChIJ1S_NpNk2w4ARz1owXj4oj64","name":"The Home Depot","address":"1401 E 19th St, Upland, CA 91784","materials":["rechargeable"],"lat":34.13369,"lng":-117.62959,"county":"San Bernardino"},{"id":"ChIJBQUgM4Ks3IARyRDuVuuL1WU","name":"The Home Depot","address":"695 E Hospitality Ln, San Bernardino, CA 92408","materials":["rechargeable"],"lat":34.06496,"lng":-117.27046,"county":"San Bernardino","phone":"909-884-4055"},{"id":"ChIJDZXZdkFmw4ARrYqR-fwEEyU","name":"The Home Depot","address":"15150 Bear Valley Rd, Victorville, CA 92395","materials":["rechargeable"],"lat":34.47291,"lng":-117.33316,"county":"San Bernardino","phone":"760-955-2999"},{"id":"ChIJH4EfymAxw4ARD0VTYS5OAUU","name":"The Home Depot","address":"250 S Mountain Ave, Upland, CA 91786","materials":["rechargeable"],"lat":34.0913,"lng":-117.66851,"county":"San Bernardino","phone":"909-949-4119"},{"id":"ChIJHyWf4gZKw4ARKNS8OshCgwU","name":"The Home Depot","address":"11884 Foothill Blvd, Rancho Cucamonga, CA 91730","materials":["rechargeable"],"lat":34.10826,"lng":-117.54623,"county":"San Bernardino"},{"id":"ChIJP7qKvDHN3IARIjeay_cbEb8","name":"The Home Depot","address":"14549 Ramona Ave, Chino, CA 91710","materials":["rechargeable"],"lat":33.98895,"lng":-117.70416,"county":"San Bernardino","phone":"909-393-5205"},{"id":"ChIJV9StQlVJw4AR-8ZqsyvmRhc","name":"The Home Depot","address":"16005 Sierra Lakes Pkwy, Fontana, CA 92336","materials":["rechargeable"],"lat":34.13841,"lng":-117.4571,"county":"San Bernardino"},{"id":"ChIJV_T-hwZNw4ARH3R_1N1Gl0k","name":"The Home Depot","address":"1451 W Foothill Blvd, Rialto, CA 92376","materials":["rechargeable"],"lat":34.10574,"lng":-117.39965,"county":"San Bernardino","phone":"909-877-0248"},{"id":"ChIJW7Dpfl2q3IARGnlsuCw7PiM","name":"The Home Depot","address":"1151 W Lugonia Ave, Redlands, CA 92374","materials":["rechargeable"],"lat":34.06819,"lng":-117.19761,"county":"San Bernardino","phone":"909-748-0505"},{"id":"ChIJcRfPx6lTw4AREgiVr820lQg","name":"The Home Depot","address":"1055 W 21st St, San Bernardino, CA 92405","materials":["rechargeable"],"lat":34.13364,"lng":-117.30692,"county":"San Bernardino"},{"id":"ChIJf5Oqqk6z3IAR4dmSOhTLUhQ","name":"The Home Depot","address":"16783 Santa Ana Ave, Fontana, CA 92337","materials":["rechargeable"],"lat":34.05486,"lng":-117.43805,"county":"San Bernardino"},{"id":"ChIJr0Y1ueBgw4AR8msiBcZcGHc","name":"The Home Depot","address":"12218 Apple Valley Rd, Apple Valley, CA 92308","materials":["rechargeable"],"lat":34.47288,"lng":-117.2429,"county":"San Bernardino","phone":"760-961-9046"},{"id":"ChIJydePlgt8xIARBos_QpiFNX0","name":"The Home Depot","address":"1100 L St, Barstow, CA 92311","materials":["rechargeable"],"lat":34.88561,"lng":-117.05982,"county":"San Bernardino","phone":"760-256-3018"},{"id":"ChIJyxM94Ldlw4ARFobpMV8Z7Es","name":"The Home Depot","address":"15655 Roy Rogers Dr, Victorville, CA 92394","materials":["rechargeable"],"lat":34.51888,"lng":-117.3251,"county":"San Bernardino","phone":"760-241-1175"},{"id":"ChIJ7VzgOTDY2oARQyGxFIaY4V8","name":"The Home Depot #6971","address":"58705 29 Palms Hwy, Yucca Valley, CA 92284","materials":["rechargeable"],"lat":34.13228,"lng":-116.38158,"county":"San Bernardino","phone":"760-365-9202"},{"id":"ChIJ3YacItKs3IARqnh4HTEYuQU","name":"White Cap Construction Supply","address":"700 S I St, San Bernardino, CA 92410","materials":["cellphones","rechargeable","singleuse"],"lat":34.08748,"lng":-117.30437,"county":"San Bernardino","phone":"909-889-2061"},{"id":"ChIJHwBAaO5g2YARFroCfhbDSQI","name":"ALPINE RIDE SHOP","address":"2226 ALPINE BLVD, Alpine, CA 91901","materials":["ebike"],"lat":32.83576,"lng":-116.76595,"county":"San Diego","phone":"619-722-7133"},{"id":"ChIJFWOrF5VO2YARO6nizRJI33w","name":"Bicycle Warehouse Chula Vista","address":"3513 MAIN ST, Chula Vista, CA 91911","materials":["ebike"],"lat":32.59425,"lng":-117.05755,"county":"San Diego","phone":"619-498-4900"},{"id":"ChIJ4yJuGRj524ARVl94McVvaEs","name":"Black Mountain Bicycles","address":"9860 Hibert St. Suite C1, San Diego, CA 92131","materials":["ebike"],"lat":32.91446,"lng":-117.11521,"county":"San Diego","phone":"858-566-0710"},{"id":"ChIJ___ouyJu3IARVUxygYv9WbQ","name":"Blue Dog Ride","address":"909 South Coast Highway, Oceanside, CA 92054","materials":["ebike"],"lat":33.1871,"lng":-117.37248,"county":"San Diego"},{"id":"ChIJy_CHLf5U2YARkPhXYHorN0s","name":"Cal Coast Bicycles","address":"3020 Adams Ave, San Diego, CA 92116","materials":["ebike"],"lat":32.7632,"lng":-117.12968,"county":"San Diego","phone":"619-281-7433"},{"id":"ChIJVaqKg0EM3IARSFfUThRUoMQ","name":"Charlie's Electric Bike","address":"710 S Coast Hwy 101, Encinitas, CA 92024","materials":["ebike"],"lat":33.04311,"lng":-117.29372,"county":"San Diego","phone":"760-782-5467"},{"id":"ChIJvzFiOzqq3oARObdbI74rUPM","name":"EZE Ryders Electric Bikes","address":"1926 Bacon St, San Diego, CA 92107","materials":["ebike"],"lat":32.74749,"lng":-117.25086,"county":"San Diego","phone":"619-848-7420"},{"id":"ChIJi_RmYC-r3oARHvY54oYLChs","name":"Electric Bike Central","address":"1851 San Diego Avenue, San Diego, CA 92110","materials":["ebike"],"lat":32.74435,"lng":-117.18517,"county":"San Diego","phone":"619-564-7028"},{"id":"ChIJOxzB6s0O3IARMnUs6PDG7M8","name":"Epic Cycles","address":"115 N Hwy 101, Solana Beach, CA 92075","materials":["ebike"],"lat":32.99253,"lng":-117.27214,"county":"San Diego","phone":"858-925-7230"},{"id":"ChIJYaknGNwM3IARP32SigFu37Q","name":"Griff Electric Bikes LLC","address":"1900 North Coast Hwy101 Suite A, Encinitas, CA 92024","materials":["ebike"],"lat":33.08056,"lng":-117.30803,"county":"San Diego","phone":"760-828-0775"},{"id":"ChIJdXRc38us3oARQK9i4m7jYfg","name":"Hollands Bicycles","address":"977 Orange Ave, Coronado, CA 92118","materials":["ebike"],"lat":32.68598,"lng":-117.17948,"county":"San Diego"},{"id":"ChIJIX0aZ71c2YARVDFFZRd1HOk","name":"Jamul True Value Hardware","address":"13881 Campo Rd Ste A-7, Jamul, CA 91935","materials":["cellphones","rechargeable"],"lat":32.71728,"lng":-116.87764,"county":"San Diego","phone":"619-669-0300"},{"id":"ChIJKW_3gEB13IARp_59lSt9vpk","name":"LAWNMOWERS PLUS INC","address":"289 SOUTH PACIFIC STREET, San Marcos, CA 92078","materials":["highenergybattery"],"lat":33.14165,"lng":-117.19687,"county":"San Diego","phone":"760-744-6761"},{"id":"ChIJA2QsklX624AR32idoXoglXc","name":"Lowe's","address":"13750 Poway Rd, Poway, CA 92064","materials":["cellphones","highenergybattery","rechargeable"],"lat":32.95703,"lng":-117.03323,"county":"San Diego"},{"id":"ChIJBW2JxW5F2YARx-7GNu_PPEg","name":"Lowe's","address":"2225 Otay Lakes Rd, Chula Vista, CA 91915","materials":["cellphones","highenergybattery","rechargeable"],"lat":32.64861,"lng":-116.96962,"county":"San Diego"},{"id":"ChIJDa0ghKB23IARRhf5MnL_a1M","name":"Lowe's","address":"151 Vista Village Dr, Vista, CA 92083","materials":["cellphones","highenergybattery","rechargeable"],"lat":33.19517,"lng":-117.24685,"county":"San Diego","phone":"760-631-6255"},{"id":"ChIJH0Vijvlw3IAREGw_67g3vbs","name":"Lowe's","address":"155 Old Grove Rd, Oceanside, CA 92057","materials":["cellphones","highenergybattery","rechargeable"],"lat":33.23043,"lng":-117.30931,"county":"San Diego","phone":"760-966-7140"},{"id":"ChIJLWkJtL3024AR1pWiQ1_3Rp8","name":"Lowe's","address":"620 W Mission Ave, Escondido, CA 92025","materials":["cellphones","highenergybattery","rechargeable"],"lat":33.12898,"lng":-117.0954,"county":"San Diego","phone":"760-484-5113"},{"id":"ChIJa0fqsKBV2YARQk19F0mle4A","name":"Lowe's","address":"2318 Northside Dr, San Diego, CA 92108","materials":["cellphones","highenergybattery","rechargeable"],"lat":32.78131,"lng":-117.12597,"county":"San Diego"},{"id":"ChIJrQ73Zlb924AR5w7DqMJgHZg","name":"Lowe's","address":"9416 Mission Gorge Rd, Santee, CA 92071","materials":["cellphones","rechargeable"],"lat":32.83993,"lng":-116.99223,"county":"San Diego"},{"id":"ChIJrX5-BmBz3IARW8w8TdtOzy4","name":"Lowe's","address":"2515 Palomar Airport Rd, Carlsbad, CA 92011","materials":["cellphones","highenergybattery","rechargeable"],"lat":33.12789,"lng":-117.26822,"county":"San Diego"},{"id":"ChIJj_gBws3_24AR8A6i1Q6QrkM","name":"Milwaukee Factory Service Centers","address":"4229 Ponderosa Ave, San Diego, CA 92123","materials":["rechargeable"],"lat":32.81707,"lng":-117.13124,"county":"San Diego"},{"id":"ChIJs74YZZ__24ARojY6xOaZias","name":"Miramar Landfill","address":"5161 Convoy St, San Diego, CA 92111","materials":["cellphones","rechargeable"],"lat":32.83921,"lng":-117.1506,"county":"San Diego"},{"id":"ChIJp4pW5tQD3IARJf1Qicgkghc","name":"Pedego La Jolla","address":"5702 La Jolla Blvd., Ste 101, La Jolla, CA 92037","materials":["ebike"],"lat":32.81579,"lng":-117.27108,"county":"San Diego","phone":"858-291-8845"},{"id":"ChIJZwpJmFX924ARP6gjruIxdvk","name":"Pedego Santee","address":"50 Town Center Parkway, Santee, CA 92071","materials":["ebike"],"lat":32.8396,"lng":-116.98881,"county":"San Diego","phone":"619-738-2500"},{"id":"ChIJCYPynw8L3IAR_LVLVyiXiKk","name":"REI - Carlsbad","address":"3415 Via Montebello, Carlsbad, CA 92009","materials":["ebike"],"lat":33.08119,"lng":-117.23382,"county":"San Diego","phone":"760-944-9020"},{"id":"ChIJxz1TvoL_24ARjTk2WUL4_3o","name":"REI - San Diego","address":"5556 Copley Drive, San Diego, CA 92111","materials":["ebike"],"lat":32.83843,"lng":-117.16298,"county":"San Diego","phone":"858-279-4400"},{"id":"ChIJrZlHe0hW2YARRC_xJKxA4NA","name":"San Carlos Ace Hardware","address":"7375 Jackson Dr, San Diego, CA 92119","materials":["cellphones","rechargeable"],"lat":32.8027,"lng":-117.04355,"county":"San Diego"},{"id":"ChIJAfN2_OwB3IARnoV1IbsdG5c","name":"San Diego Cyclery","address":"910 Grand Ave, San Diego, CA 92109","materials":["ebike"],"lat":32.79567,"lng":-117.25241,"county":"San Diego","phone":"858-220-6187"},{"id":"ChIJi2bwPrT724ARs92K7X6nitw","name":"San Diego Fly Rides","address":"12544 Kirkham Ct, Suite 2, Poway, CA 92064","materials":["ebike"],"lat":32.945,"lng":-117.05168,"county":"San Diego","phone":"323-524-5820"},{"id":"Ei03NDUgTiBDb2FzdCBId3kgMTAxLCBFbmNpbml0YXMsIENBIDkyMDI0LCBVU0EiMRIvChQKEgkjG5NK9wzcgBHU5RIaFwEiuRDpBSoUChIJuYL9Z_AM3IARAFVcrNpnQog","name":"Sole Bicycles","address":"745 N. Coast Highway 101, Encinitas, CA 92924","materials":["ebike"],"lat":33.06244,"lng":-117.30153,"county":"San Diego","phone":"760-704-8197"},{"id":"ChIJyfcRwmEL3IAR3Wi0ulc8mXQ","name":"Specialized Carlsbad","address":"7750 El Camino Real, Carlsbad, CA 92009","materials":["ebike"],"lat":33.08225,"lng":-117.26646,"county":"San Diego","phone":"442-208-7969"},{"id":"ChIJDf0sQdr024ARTRSKzWJ4ECM","name":"Stotz Equipment -Escondido","address":"1830 West Mission Road, Escondido, CA 92029","materials":["highenergybattery"],"lat":33.12983,"lng":-117.11893,"county":"San Diego","phone":"760-737-2400"},{"id":"ChIJBeSG4MH_24AR_SR6edbk3T0","name":"TREK Bicycle Kearny Mesa","address":"4240 Kearny Mesa Rd, Suite 108, San Diego, CA 92111BKM5K","materials":["ebike"],"lat":32.8179,"lng":-117.14981,"county":"San Diego","phone":"858-974-8735"},{"id":"ChIJ-yPQScdT2YAR0_vz0QdYLuI","name":"The Home Depot","address":"355 Marketplace Ave, San Diego, CA 92113","materials":["rechargeable"],"lat":32.70177,"lng":-117.10092,"county":"San Diego","phone":"619-263-1533"},{"id":"ChIJ0diM1kpO2YARKnvoVyU2ScA","name":"The Home Depot","address":"725 Plaza Ct, Chula Vista, CA 91910","materials":["rechargeable"],"lat":32.63725,"lng":-117.03196,"county":"San Diego"},{"id":"ChIJ13zOWDZY2YARBEBpd6LIauY","name":"The Home Depot","address":"298 Fletcher Pkwy, El Cajon, CA 92020","materials":["rechargeable"],"lat":32.80901,"lng":-116.96501,"county":"San Diego"},{"id":"ChIJD-FDqfP024ARVcR1xx4qBbI","name":"The Home Depot","address":"1550 W Valley Pkwy, Escondido, CA 92029","materials":["rechargeable"],"lat":33.11086,"lng":-117.10607,"county":"San Diego"},{"id":"ChIJD95_NPqq3oARtYeOfDIMXSo","name":"The Home Depot","address":"3555 Sports Arena Blvd, San Diego, CA 92110","materials":["rechargeable"],"lat":32.7522,"lng":-117.21362,"county":"San Diego"},{"id":"ChIJHR-bj51F2YARl3KwCO4Rwpc","name":"The Home Depot","address":"1320 Eastlake Pkwy, Chula Vista, CA 91915","materials":["rechargeable"],"lat":32.63287,"lng":-116.96961,"county":"San Diego"},{"id":"ChIJJwt_tNRO2YAReIFwF-xrOS4","name":"The Home Depot","address":"950 Dennery Rd, San Diego, CA 92154","materials":["rechargeable"],"lat":32.57634,"lng":-117.03741,"county":"San Diego","phone":"619-428-8662"},{"id":"ChIJLVqK5XAA3IARC0pVX1JPzVU","name":"The Home Depot","address":"4255 Genesee Ave, San Diego, CA 92117","materials":["rechargeable"],"lat":32.82294,"lng":-117.1807,"county":"San Diego"},{"id":"ChIJN09H09RW2YAR6y-enAUaKbo","name":"The Home Depot","address":"7530 Broadway, Lemon Grove, CA 91945","materials":["rechargeable"],"lat":32.74407,"lng":-117.03582,"county":"San Diego"},{"id":"ChIJN4vjtari24ARpazkGNOsuRk","name":"The Home Depot","address":"255 Town Center Pkwy, Santee, CA 92071","materials":["rechargeable"],"lat":32.84083,"lng":-116.98508,"county":"San Diego"},{"id":"ChIJNc1TLjV33IARyFtQfLsOyhg","name":"The Home Depot","address":"5755 Mission Ave, Oceanside, CA 92057","materials":["rechargeable"],"lat":33.25063,"lng":-117.26577,"county":"San Diego"},{"id":"ChIJNe6_xmvz24ARH5QbzJJW5ys","name":"The Home Depot","address":"1475 E Valley Pkwy, Escondido, CA 92027","materials":["rechargeable"],"lat":33.13119,"lng":-117.06056,"county":"San Diego","phone":"760-233-1285"},{"id":"ChIJP-FMKD1M2YARaSxVO-I48mE","name":"The Home Depot","address":"525 Saturn Blvd, San Diego, CA 92154","materials":["rechargeable"],"lat":32.58697,"lng":-117.09173,"county":"San Diego","phone":"619-575-1900"},{"id":"ChIJRdK37ux03IARiB8cXmX4tKo","name":"The Home Depot","address":"2430 S Melrose Dr, Vista, CA 92081","materials":["rechargeable"],"lat":33.14072,"lng":-117.24207,"county":"San Diego","phone":"760-599-4080"},{"id":"ChIJYxQiOh_524ARSFzmgj0wowg","name":"The Home Depot","address":"10604 Westview Pkwy, San Diego, CA 92126","materials":["rechargeable"],"lat":32.91375,"lng":-117.12151,"county":"San Diego"},{"id":"ChIJgWBHowD624ARu9Mfgek4vvI","name":"The Home Depot","address":"12185 Carmel Mountain Rd, San Diego, CA 92128","materials":["rechargeable"],"lat":32.98464,"lng":-117.07481,"county":"San Diego","phone":"858-592-9600"},{"id":"ChIJmQVgi8dV2YARPpVU2webImE","name":"The Home Depot","address":"5920 Fairmount Ave, San Diego, CA 92120","materials":["rechargeable"],"lat":32.78215,"lng":-117.10239,"county":"San Diego"},{"id":"ChIJn69eKqf724ARQ4IFq2G0kIo","name":"The Home Depot","address":"12175 Tech Center Dr, Poway, CA 92064","materials":["rechargeable"],"lat":32.93747,"lng":-117.03517,"county":"San Diego"},{"id":"ChIJqTPxMYIL3IARIoO-swA3y5w","name":"The Home Depot","address":"1001 N El Camino Real, Encinitas, CA 92024","materials":["rechargeable"],"lat":33.06466,"lng":-117.26118,"county":"San Diego"},{"id":"ChIJvWDl96eK24AR3HlZhphNFTY","name":"The Home Depot","address":"550 W San Marcos Blvd, San Marcos, CA 92069","materials":["rechargeable"],"lat":33.14022,"lng":-117.17372,"county":"San Diego","phone":"760-510-2623"},{"id":"ChIJw_w8umFx3IARdXrr3LNtnTQ","name":"The Home Depot","address":"3838 Vista Way, Oceanside, CA 92056","materials":["rechargeable"],"lat":33.1853,"lng":-117.29487,"county":"San Diego","phone":"760-941-5990"},{"id":"ChIJ31C7ekAM3IAR8MOQcpnvH7Q","name":"Trek Bicycle Encinitas","address":"1010 S. Coast Hwy 101, Encinitas, CA 92024","materials":["ebike"],"lat":33.03893,"lng":-117.29342,"county":"San Diego","phone":"760-632-0006"},{"id":"ChIJk7mO8BFX2YARgq6if8JNQ_8","name":"Trek Bicycle La Mesa","address":"8495 Fletcher Parkway, La Mesa, CA 91942","materials":["ebike"],"lat":32.77933,"lng":-117.01513,"county":"San Diego","phone":"619-668-8787"},{"id":"ChIJeag-Vmt13IARCSyeIRsdSDM","name":"Trek Bicycle North County","address":"1617 Capalina Rd  Unit B, San Marcos, CA 92069","materials":["ebike"],"lat":33.14958,"lng":-117.19658,"county":"San Diego","phone":"760-599-9735"},{"id":"ChIJpZQdbChO2YARtKxVcBXhpGs","name":"Trek Bicycle South Bay - San Diego","address":"3901 Bonita Rd, Bonita, CA 91902","materials":["ebike"],"lat":32.65692,"lng":-117.04309,"county":"San Diego","phone":"619-216-9123"},{"id":"ChIJjfyBoJz_24ARYhMLVWQYSA4","name":"Trek Bikes - Kearny Mesa San Diego","address":"4240 KEARNY MESA ROAD, San Diego, CA 92111","materials":["ebike"],"lat":32.81887,"lng":-117.14966,"county":"San Diego","phone":"858-974-8735"},{"id":"ChIJMRbLfs0G3IARmngvWNymF1I","name":"UC Cyclery Inc.","address":"8715 Villa La Jolla Dr., La Jolla, CA 92037","materials":["ebike"],"lat":32.86743,"lng":-117.2327,"county":"San Diego","phone":"858-452-8842"},{"id":"ChIJU_4FhDP624ARqZSJIajnggE","name":"Western Mower & Engine","address":"12823 Pomerado Rd, Poway, CA 92064","materials":["highenergybattery"],"lat":32.94963,"lng":-117.06219,"county":"San Diego","phone":"858-748-2292"},{"id":"ChIJKy5fOcyK24ARAdvQwAt3A74","name":"White Cap Construction Supply","address":"804 Rancheros Dr, San Marcos, CA 92069","materials":["cellphones","rechargeable","singleuse"],"lat":33.14055,"lng":-117.14219,"county":"San Diego","phone":"800-252-5482"},{"id":"ChIJaWrLsSf124ARDDNSlAGTpOE","name":"White Cap Construction Supply","address":"505 Corporate Dr, Escondido, CA 92029","materials":["cellphones","rechargeable","singleuse"],"lat":33.12719,"lng":-117.12906,"county":"San Diego","phone":"760-438-2292"},{"id":"ChIJs4UX8Jv_24AR8_k6GQG9HfM","name":"White Cap Construction Supply","address":"7560 Convoy Ct, San Diego, CA 92111","materials":["cellphones","rechargeable","singleuse"],"lat":32.83538,"lng":-117.15681,"county":"San Diego"},{"id":"ChIJ5cMkFtH024ARGg917XB48XU","name":"uBreakiFix","address":"740 Nordahl Road, San Marcos, CA 92069","materials":["cellphones","rechargeable"],"lat":33.13444,"lng":-117.11918,"county":"San Diego","phone":"442-999-5553"},{"id":"ChIJVVXFKOJz3IARxqFzQDX4QPE","name":"uBreakiFix","address":"2020 Hacienda Dr #H, Vista, CA 92081","materials":["cellphones","rechargeable"],"lat":33.18395,"lng":-117.28493,"county":"San Diego"},{"id":"ChIJa6LU1a1U2YAR_hw_ScNF3A0","name":"uBreakiFix","address":"1501 India St, San Diego, CA 92101","materials":["cellphones","rechargeable"],"lat":32.72127,"lng":-117.16783,"county":"San Diego"},{"id":"ChIJbaQxFQH624AR4tBN1FQ4ABs","name":"uBreakiFix","address":"11885 Carmel Mountain Rd Suite 905, San Diego, CA 92128","materials":["cellphones","rechargeable"],"lat":32.98149,"lng":-117.07512,"county":"San Diego","phone":"858-649-6071"},{"id":"ChIJscLVhKEI3IARAIiiwKUXFb4","name":"uBreakiFix","address":"2668-A Del Mar Heights Rd, Del Mar, CA 92014","materials":["cellphones","rechargeable"],"lat":32.94982,"lng":-117.24649,"county":"San Diego"},{"id":"ChIJFZDA66Be7IARi70MJCPRFog","name":"7-Eleven","address":"701 S. Elm St., Arroyo Grande, CA 93420","materials":["cellphones","rechargeable","singleuse"],"lat":35.10628,"lng":-120.60104,"county":"San Luis Obispo","phone":"805-489-7789"},{"id":"ChIJ133Iegbx7IARv08iF25-vic","name":"7-Eleven Food Store","address":"1301 Monterey, San Luis Obispo, CA 93401","materials":["cellphones","rechargeable","singleuse"],"lat":35.28417,"lng":-120.65678,"county":"San Luis Obispo","phone":"805-544-3975"},{"id":"ChIJ39ApJ99Y7IARRAQDT1_1xFE","name":"7-Eleven Food Store","address":"99 S. Dolliver, Pismo Beach, CA 93449","materials":["cellphones","rechargeable","singleuse"],"lat":35.13658,"lng":-120.63824,"county":"San Luis Obispo","phone":"805-773-1208"},{"id":"ChIJL7eC7ALx7IARQp51_M6owg0","name":"7-Eleven Food Store","address":"692 Marsh St., San Luis Obispo, CA 93401","materials":["cellphones","rechargeable","singleuse"],"lat":35.27801,"lng":-120.66434,"county":"San Luis Obispo","phone":"805-543-1331"},{"id":"ChIJ_WLzvjZZ7IARsGwJWvLIlaA","name":"7-Eleven Food Store","address":"360 W Grand Ave, Grover Beach, CA 93433","materials":["cellphones","rechargeable","singleuse"],"lat":35.12144,"lng":-120.62693,"county":"San Luis Obispo","phone":"805-489-7516"},{"id":"ChIJtzHqX6nx7IARaA0f3Xrqm2I","name":"7-Eleven Food Store","address":"552 California Blvd., San Luis Obispo, CA 93405","materials":["cellphones","rechargeable","singleuse"],"lat":35.2914,"lng":-120.66012,"county":"San Luis Obispo","phone":"805-541-0260"},{"id":"ChIJydMYM5de7IARU2dTqlTAOMY","name":"7-Eleven Food Store","address":"830 Grand Ave., Arroyo Grande, CA 93420","materials":["cellphones","rechargeable","singleuse"],"lat":35.11915,"lng":-120.59133,"county":"San Luis Obispo","phone":"805-481-0865"},{"id":"ChIJ8V--28_p7IARaYmaIK--ZJI","name":"7-Eleven Food Stores","address":"8000 El Camino Real, Atascadero, CA 93422","materials":["cellphones","rechargeable","singleuse"],"lat":35.47719,"lng":-120.65639,"county":"San Luis Obispo","phone":"805-466-1458"},{"id":"ChIJv04wslfD7IAR_ATxdxZZv2Q","name":"A-1 Liquor","address":"106 S Main St, Templeton, CA 93465","materials":["cellphones","rechargeable","singleuse"],"lat":35.55211,"lng":-120.70315,"county":"San Luis Obispo","phone":"805-434-2442"},{"id":"ChIJkWwOzBPF7IAR1-fQV2f5YNg","name":"AM PM Mini Market","address":"195 Niblick Rd., Paso Robles, CA 93446","materials":["cellphones","rechargeable","singleuse"],"lat":35.61557,"lng":-120.68068,"county":"San Luis Obispo","phone":"805-238-7178"},{"id":"EigxMjAxIDI0dGggU3QsIFBhc28gUm9ibGVzLCBDQSA5MzQ0NiwgVVNBIjESLwoUChIJMZJecYvP7IAR_nTN6Jc179MQsQkqFAoSCWcsinv0z-yAEeICzEeCGEfS","name":"AM PM Mini Market","address":"1201 24th St., Paso Robles, CA 93446","materials":["cellphones","rechargeable","singleuse"],"lat":35.64198,"lng":-120.68643,"county":"San Luis Obispo","phone":"805-238-4648"},{"id":"ChIJyTEkCBTF7IARo9uqsBe_eHA","name":"AT&T Hightower PCS","address":"92 Niblick Rd., Paso Robles, CA 93446","materials":["cellphones","rechargeable","singleuse"],"lat":35.61465,"lng":-120.68328,"county":"San Luis Obispo","phone":"805-237-1300"},{"id":"ChIJJXlZzQfx7IAR8OZmtS44GzQ","name":"Advanced Hearing Aid Center","address":"1495 Palm St., San Luis Obispo, CA 93401","materials":["cellphones","rechargeable","singleuse"],"lat":35.28655,"lng":-120.65524,"county":"San Luis Obispo","phone":"805-541-2864"},{"id":"ChIJabRGmQXx7IAR-LzxcWfYjiI","name":"Albertsons","address":"1321 Johnson Ave., San Luis Obispo, CA 93401","materials":["cellphones","rechargeable","singleuse"],"lat":35.28178,"lng":-120.65565,"county":"San Luis Obispo","phone":"805-545-9061"},{"id":"ChIJE2E4Knfh7IAR4YLigj59lLE","name":"Albertsons Supermarkets","address":"730 Quintana Rd, Morro Bay, CA 93442","materials":["cellphones","rechargeable","singleuse"],"lat":35.36751,"lng":-120.84433,"county":"San Luis Obispo","phone":"805-772-0670"},{"id":"ChIJkZpTrxPF7IARJOWTuY3NxzU","name":"Albertsons-Sav-On","address":"189 Niblick Rd., Paso Robles, CA 93446","materials":["cellphones","rechargeable","singleuse"],"lat":35.61665,"lng":-120.68101,"county":"San Luis Obispo","phone":"805-237-1627"},{"id":"ChIJ_xYAUM0x7YAR31XMFCaWG14","name":"All American Video","address":"1306 Tamson Drive, Cambria, CA 93428","materials":["cellphones","rechargeable","singleuse"],"lat":35.56324,"lng":-121.09107,"county":"San Luis Obispo","phone":"805-927-5162"},{"id":"ChIJ2TX7UvLP7IARfbZzT9-u3aA","name":"Appy's Liquor","address":"2816 Spring St., Paso Robles, CA 93446","materials":["cellphones","rechargeable","singleuse"],"lat":35.64368,"lng":-120.69243,"county":"San Luis Obispo","phone":"805-239-7390"},{"id":"ChIJ6yrLb5TC7IARW5XOc8Etv3g","name":"Arco AM/PM","address":"6100 San Anselmo, Atascadero, CA 93422","materials":["cellphones","rechargeable","singleuse"],"lat":35.49643,"lng":-120.68406,"county":"San Luis Obispo","phone":"805-461-5419"},{"id":"ChIJJaivgXrh7IARCR5uAXuYniw","name":"Arco AM/PM","address":"940 Morro Bay Blvd, Morro Bay, CA 93442","materials":["cellphones","rechargeable","singleuse"],"lat":35.36604,"lng":-120.84101,"county":"San Luis Obispo","phone":"805-772-9354"},{"id":"ChIJQ65EqM7w7IAR3r03mC5SZX4","name":"Arco AM/PM","address":"12424 Los Osos Valley Rd., San Luis Obispo, CA 93405","materials":["cellphones","rechargeable","singleuse"],"lat":35.24662,"lng":-120.68272,"county":"San Luis Obispo","phone":"805-544-4880"},{"id":"ChIJj692L5Be7IARIdZ5z5LUaOQ","name":"Arco AM/PM","address":"100 Grand Ave., Arroyo Grande, CA 93420","materials":["cellphones","rechargeable","singleuse"],"lat":35.1208,"lng":-120.58603,"county":"San Luis Obispo","phone":"805-473-8365"},{"id":"ChIJbWEtB49e7IARrioFlY6POH4","name":"Arroyo Grande Shell Station","address":"222 E. Grand Ave., Arroyo Grande, CA 93420","materials":["cellphones","rechargeable","singleuse"],"lat":35.12217,"lng":-120.5825,"county":"San Luis Obispo","phone":"805-489-7540"},{"id":"ChIJz9GArCz37IARZOdqOJpB2eM","name":"Art's Cyclery","address":"3988 Short St, San Luis Obispo, CA 93401","materials":["ebike"],"lat":35.24423,"lng":-120.67223,"county":"San Luis Obispo","phone":"805-439-3915"},{"id":"ChIJKWpez9Hp7IAR4cZNktvUbMs","name":"Atascadero Waste Alternatives","address":"7625 San Luis Ave., Atascadero, CA 93422","materials":["cellphones","rechargeable","singleuse"],"lat":35.47796,"lng":-120.65806,"county":"San Luis Obispo","phone":"805-466-3636"},{"id":"ChIJC5_96sLw7IARf-ebDUqWbk4","name":"Batteries Plus","address":"481 Madonna Rd, San Luis Obispo, CA 93405","materials":["cellphones","rechargeable","singleuse"],"lat":35.26103,"lng":-120.67917,"county":"San Luis Obispo","phone":"805-541-9901"},{"id":"ChIJTfAtU7Dj7IAR8-6lNhgfhlY","name":"Baywood Market","address":"1297 2nd St, Los Osos, CA 93402","materials":["cellphones","rechargeable","singleuse"],"lat":35.32837,"lng":-120.84126,"county":"San Luis Obispo","phone":"805-528-1135"},{"id":"ChIJHUWy333P7IARttMvjk-qcP4","name":"Bed Bath & Beyond","address":"2449 Golden Hill Rd., Paso Robles, CA 93446","materials":["cellphones","rechargeable","singleuse"],"lat":35.64657,"lng":-120.66009,"county":"San Luis Obispo","phone":"805-239-1487"},{"id":"ChIJ_Rg23Nzw7IARNYRWANLGagM","name":"Bed Bath & Beyond","address":"317 Madonna Rd, San Luis Obispo, CA 93405","materials":["cellphones","rechargeable","singleuse"],"lat":35.26034,"lng":-120.67631,"county":"San Luis Obispo","phone":"805-542-9004"},{"id":"ChIJXdeN2spe7IARYL2E0Iq3xoE","name":"Ben's Computers","address":"983 W Grand Ave, Grover Beach, CA 93433","materials":["cellphones","rechargeable","singleuse"],"lat":35.12168,"lng":-120.61923,"county":"San Luis Obispo","phone":"805-489-0222"},{"id":"ChIJxe7ESpZe7IARHXZX9ZSTWGU","name":"Best Care Pharmacy","address":"1051 Grand Ave., Arroyo Grande, CA 93420","materials":["cellphones","rechargeable","singleuse"],"lat":35.11887,"lng":-120.59542,"county":"San Luis Obispo","phone":"805-481-1961"},{"id":"ChIJqZbJD49e7IARJWfmUvtVBNc","name":"Bewley's Chevron","address":"251 E. Grand Ave., Arroyo Grande, CA 93420","materials":["cellphones","rechargeable","singleuse"],"lat":35.12186,"lng":-120.58196,"county":"San Luis Obispo","phone":"805-489-5048"},{"id":"ChIJwTJNN2rF7IARcjJQG-F9Qp8","name":"Big Creek Lumber","address":"745 Riverside, Paso Robles, CA 93446","materials":["cellphones","rechargeable","singleuse"],"lat":35.62193,"lng":-120.68683,"county":"San Luis Obispo","phone":"805-238-7922"},{"id":"ChIJm9eVY9nC7IARpHHfSlDLxxM","name":"Big Lots","address":"2290 El Camino Real, Atascadero, CA 93422","materials":["cellphones","rechargeable","singleuse"],"lat":35.51121,"lng":-120.69666,"county":"San Luis Obispo","phone":"805-462-9913"},{"id":"ChIJL_6fTGfF7IARetY9lKVKQ-0","name":"Blake's True Value Home Center","address":"1701 Riverside Ave., Paso Robles, CA 93446","materials":["cellphones","rechargeable","singleuse"],"lat":35.63231,"lng":-120.68796,"county":"San Luis Obispo","phone":"805-238-3934"},{"id":"ChIJfXNV8J3h7IAR5qdMvX3hvb0","name":"Bottle Liquor","address":"999 Main st, Morro Bay, CA 93442","materials":["cellphones","rechargeable","singleuse"],"lat":35.36765,"lng":-120.85046,"county":"San Luis Obispo","phone":"805-772-8474"},{"id":"ChIJrcifrJVe7IARCKW1Skf1TqI","name":"Brisco?s True Value Hardware","address":"1005 El Camino Real, Arroyo Grande, CA 93420","materials":["cellphones","rechargeable","singleuse"],"lat":35.12382,"lng":-120.59419,"county":"San Luis Obispo","phone":"805-489-5536"},{"id":"ChIJ16XrB15o7IARvmvq5kbHVEY","name":"CVS Pharmacy","address":"610 W Tefft St, Nipomo, CA 93444","materials":["cellphones","rechargeable"],"lat":35.03598,"lng":-120.48767,"county":"San Luis Obispo","phone":"805-929-2740"},{"id":"ChIJ9zH-E8_p7IAREUiP8rMpNDo","name":"CVS Pharmacy","address":"8320 El Camino Real, Atascadero, CA 93422","materials":["cellphones","rechargeable"],"lat":35.47421,"lng":-120.65632,"county":"San Luis Obispo","phone":"805-466-0732"},{"id":"ChIJLwDyjr_w7IARi1bjDjaF9ls","name":"CVS Pharmacy","address":"1300 Madonna Rd, San Luis Obispo, CA 93405","materials":["cellphones","rechargeable"],"lat":35.25783,"lng":-120.6895,"county":"San Luis Obispo","phone":"805-549-0993"},{"id":"ChIJOSErsLle7IARQPbjryBRznc","name":"CVS Pharmacy","address":"1435 E Grand Ave, Arroyo Grande, CA 93420","materials":["cellphones","rechargeable"],"lat":35.12035,"lng":-120.60642,"county":"San Luis Obispo","phone":"805-474-5720"},{"id":"ChIJP4PDtdT37IARCK66y_7bnPU","name":"CVS Pharmacy","address":"3960 Broad St, San Luis Obispo, CA 93401","materials":["cellphones","rechargeable"],"lat":35.24896,"lng":-120.64258,"county":"San Luis Obispo","phone":"805-783-2903"},{"id":"ChIJV1Py4ALx7IARXoKPxh6wMZA","name":"CVS Pharmacy","address":"717 Marsh St, San Luis Obispo, CA 93401","materials":["cellphones","rechargeable"],"lat":35.2781,"lng":-120.66334,"county":"San Luis Obispo","phone":"805-547-9888"},{"id":"ChIJeUJBdRPF7IARdmyKvULwA4E","name":"CVS Pharmacy","address":"187 Niblick Rd, Paso Robles, CA 93446","materials":["cellphones","rechargeable"],"lat":35.61687,"lng":-120.68191,"county":"San Luis Obispo","phone":"805-238-2947"},{"id":"ChIJyQmestpe7IAR7sg9yk4bmqM","name":"CVS Pharmacy","address":"827 Oak Park Blvd, Pismo Beach, CA 93449","materials":["cellphones","rechargeable"],"lat":35.13294,"lng":-120.60767,"county":"San Luis Obispo","phone":"805-473-1114"},{"id":"ChIJt1MT6FHw7IAR9gUoATfQUjs","name":"California Fresh Market","address":"771 E Foothill Blvd, San Luis Obispo, CA 93405","materials":["cellphones","rechargeable","singleuse"],"lat":35.29327,"lng":-120.6731,"county":"San Luis Obispo","phone":"805-250-1425"},{"id":"ChIJVYsaqtIx7YARTqxAo-re25A","name":"Cambria Community Services District","address":"1316 Tamson St, Cambria, CA 93428","materials":["cellphones","rechargeable","singleuse"],"lat":35.56321,"lng":-121.09079,"county":"San Luis Obispo","phone":"805-927-6223"},{"id":"ChIJw0nk4Sow7YAR-u4YF3heLLk","name":"Cambria Drug & Gift","address":"2222 Main St, Cambria, CA 93428","materials":["cellphones","rechargeable","singleuse"],"lat":35.56396,"lng":-121.08219,"county":"San Luis Obispo","phone":"805-927-7283"},{"id":"ChIJ1w-zZMkx7YAR6Un3-OIJmnQ","name":"Cambria General Store","address":"850 Main St, Cambria, CA 93428","materials":["cellphones","rechargeable","singleuse"],"lat":35.56603,"lng":-121.09877,"county":"San Luis Obispo","phone":"805-927-0975"},{"id":"ChIJdQtIbSow7YAR7co3ikOpXiM","name":"Cambria Hardware","address":"2345 Village Ln, Cambria, CA 93428","materials":["cellphones","rechargeable","singleuse"],"lat":35.5623,"lng":-121.0802,"county":"San Luis Obispo","phone":"805-927-4650"},{"id":"ChIJS6vLI7LF7IARBSk9r77t1XM","name":"Cambriabike.com","address":"1645 Commerce Way, Paso Robles, CA 93446","materials":["ebike"],"lat":35.61208,"lng":-120.65288,"county":"San Luis Obispo"},{"id":"ChIJmcIsbazx7IAR77uMJbceKQI","name":"Campus Bottle","address":"290 California Blvd., San Luis Obispo, CA 93405","materials":["cellphones","rechargeable","singleuse"],"lat":35.29292,"lng":-120.66168,"county":"San Luis Obispo","phone":"805-543-0923"},{"id":"ChIJhfQoP3cg7YARKiMGXmwGdyE","name":"Cayucos Liquor","address":"75 S Ocean Ave, Cayucos, CA 93430","materials":["cellphones","rechargeable","singleuse"],"lat":35.44722,"lng":-120.9005,"county":"San Luis Obispo","phone":"805-995-3711"},{"id":"ChIJCVoI93og7YARF186odwfrbQ","name":"Cayucos Pharmacy","address":"124 N Ocean Ave, Cayucos, CA 93430","materials":["cellphones","rechargeable","singleuse"],"lat":35.44916,"lng":-120.90462,"county":"San Luis Obispo","phone":"805-995-3538"},{"id":"ChIJB0hIE3sg7YARXX6erK4boXw","name":"Cayucos Sanitary District","address":"200 Ash Ave, Cayucos, CA 93430","materials":["cellphones","rechargeable","singleuse"],"lat":35.45088,"lng":-120.90542,"county":"San Luis Obispo","phone":"805-995-3290"},{"id":"ChIJ16cxVHYg7YARxDbeiJRSdbE","name":"Cayucos Super Market","address":"301 S Ocean Ave, Cayucos, CA 93430","materials":["cellphones","rechargeable","singleuse"],"lat":35.44642,"lng":-120.89852,"county":"San Luis Obispo","phone":"805-995-3929"},{"id":"Ei0xODAwIFcgR3JhbmQgQXZlLCBHcm92ZXIgQmVhY2gsIENBIDkzNDMzLCBVU0EiMRIvChQKEglPX1HGt17sgBEziptDYTUUMRCIDioUChIJpw254TRZ7IARlIYr91ipfjQ","name":"Cellular One","address":"1800 W Grand Ave, Grover Beach, CA 93433","materials":["cellphones","rechargeable","singleuse"],"lat":35.12102,"lng":-120.61031,"county":"San Luis Obispo","phone":"805-474-6744"},{"id":"ChIJt7shRwNc7IAR6z4nOtYsFH0","name":"Central Market","address":"2061 Cienaga, Oceano, CA 93445","materials":["cellphones","rechargeable","singleuse"],"lat":35.09856,"lng":-120.60952,"county":"San Luis Obispo","phone":"805-489-5300"},{"id":"ChIJByQ_Q7zp7IARG5xC6XcugD0","name":"Chalk Mountain Liquor","address":"9990 El Camino Real, Atascadero, CA 93422","materials":["cellphones","rechargeable","singleuse"],"lat":35.4635,"lng":-120.64707,"county":"San Luis Obispo","phone":"805-461-1100"},{"id":"ChIJN5jU3wnx7IARwRnG-Swo2rM","name":"Cheveron","address":"2000 Monterey, San Luis Obispo, CA 93401","materials":["cellphones","rechargeable","singleuse"],"lat":35.29035,"lng":-120.6501,"county":"San Luis Obispo","phone":"805-543-4415"},{"id":"ChIJmeNoULnp7IARiWqRtkBs4bg","name":"Cheveron Atascadero","address":"8955 Montecito, Atascadero, CA 93422","materials":["cellphones","rechargeable","singleuse"],"lat":35.46514,"lng":-120.64929,"county":"San Luis Obispo","phone":"805-462-0659"},{"id":"ChIJ5aHIiFLw7IARO4Aod1ZDN_8","name":"Chevron","address":"151 N. Santa Rosa, San Luis Obispo, CA 93405","materials":["cellphones","rechargeable","singleuse"],"lat":35.29435,"lng":-120.66861,"county":"San Luis Obispo","phone":"805-596-0236"},{"id":"ChIJ735VFysw7YAR2Wgk6sVZr18","name":"Chevron","address":"2194 Main St, Cambria, CA 93428","materials":["cellphones","rechargeable","singleuse"],"lat":35.56361,"lng":-121.08296,"county":"San Luis Obispo","phone":"805-927-4626"},{"id":"ChIJOUvDdYvP7IARXJPjSauokPs","name":"Chevron","address":"1302 24th St., Paso Robles, CA 93446","materials":["cellphones","rechargeable","singleuse"],"lat":35.64183,"lng":-120.68622,"county":"San Luis Obispo","phone":"805-238-2070"},{"id":"ChIJO_N5Fjrx7IARa8KzkaXVdtU","name":"Chevron","address":"3180 Broad St., San Luis Obispo, CA 93401","materials":["cellphones","rechargeable","singleuse"],"lat":35.26177,"lng":-120.64965,"county":"San Luis Obispo","phone":"805-544-0611"},{"id":"ChIJpRr7e2Bo7IARxOJ3ptO9iKI","name":"Chevron Gas Station","address":"460 W Tefft, Nipomo, CA 93444","materials":["cellphones","rechargeable","singleuse"],"lat":35.0375,"lng":-120.48418,"county":"San Luis Obispo","phone":"805-929-1991"},{"id":"ChIJAx9x1ylZ7IARufZ0HMcB4d8","name":"Chevron Market Plus","address":"340 S. Five Cities Dr., Pismo Beach, CA 93449","materials":["cellphones","rechargeable","singleuse"],"lat":35.137,"lng":-120.62795,"county":"San Luis Obispo","phone":"805-773-1668"},{"id":"ChIJWx6e-NvE7IARyDeujFb9GsE","name":"Chevron Paso Robles","address":"1849 Ramada Dr., Paso Robles, CA 93446","materials":["cellphones","rechargeable","singleuse"],"lat":35.59047,"lng":-120.69476,"county":"San Luis Obispo","phone":"805-238-0276"},{"id":"ChIJlw-YvJTC7IARqYxfvihwb50","name":"Cigarettes For Less","address":"4060 El Camino Real, Atascadero, CA 93422","materials":["cellphones","rechargeable","singleuse"],"lat":35.49865,"lng":-120.68407,"county":"San Luis Obispo","phone":"805-466-1395"},{"id":"ChIJSxkOyQ3j7IARlByALZSpDNU","name":"Cingular","address":"1034 Los Osos Valley Rd, Los Osos, CA 93402","materials":["cellphones","rechargeable","singleuse"],"lat":35.31126,"lng":-120.83148,"county":"San Luis Obispo","phone":"805-528-3300"},{"id":"ChIJz0vqfOpe7IAR0V4DrqE6aY0","name":"Cingular","address":"1138 W. Branch, Arroyo Grande, CA 93420","materials":["cellphones","rechargeable","singleuse"],"lat":35.12875,"lng":-120.59636,"county":"San Luis Obispo","phone":"805-473-3400"},{"id":"ChIJAejYMCvo7IARUM_JTAbXshk","name":"Circle K Food Store","address":"6930 Morro Rd., Atascadero, CA 93422","materials":["cellphones","rechargeable","singleuse"],"lat":35.48141,"lng":-120.66654,"county":"San Luis Obispo","phone":"805-466-1361"},{"id":"ChIJy2RDDZPC7IARmLVuMlG5QS4","name":"Circle K Food Store","address":"4381 El Camino Real, Atascadero, CA 93422","materials":["cellphones","rechargeable","singleuse"],"lat":35.49833,"lng":-120.68173,"county":"San Luis Obispo","phone":"805-466-3778"},{"id":"ChIJ69ZpUnDF7IAR4b6WMgC1acw","name":"City Market","address":"609 Creston Rd., Paso Robles, CA 93446","materials":["cellphones","rechargeable","singleuse"],"lat":35.6288,"lng":-120.67524,"county":"San Luis Obispo","phone":"805-226-0528"},{"id":"ChIJ9YK2UUpZ7IARRVgEur_BXPk","name":"City of Grover Beach","address":"S 8th, Grover Beach, CA 93433","materials":["cellphones","rechargeable","singleuse"],"lat":35.11746,"lng":-120.62179,"county":"San Luis Obispo","phone":"805-489-9657"},{"id":"ChIJ-6JV6kLF7IARTtBy6jnpZw0","name":"City of Paso Robles","address":"1000 Spring St., Paso Robles, CA 93446","materials":["cellphones","rechargeable","singleuse"],"lat":35.62539,"lng":-120.6906,"county":"San Luis Obispo","phone":"805-227-7276"},